%time,field.header.seq,field.header.stamp,field.header.frame_id,field.status,field.status.service,field.latitude,field.longitude,field.altitude,field.position_covariance0,field.position_covariance1,field.position_covariance2,field.position_covariance3,field.position_covariance4,field.position_covariance5,field.position_covariance6,field.position_covariance7,field.position_covariance8,field.position_covariance_type
1660892841.663796504,1711,1660892841.663796504,gps,0,0,35.6533145317,139.7924910617,4.3110000000,0,0,0,0,0,0,0,0,0,0
1660892841.866919818,1712,1660892841.866919818,gps,0,0,35.6533145800,139.7924910467,4.3130000000,0,0,0,0,0,0,0,0,0,0
1660892842.072049450,1713,1660892842.072049450,gps,0,0,35.6533146317,139.7924910350,4.3160000000,0,0,0,0,0,0,0,0,0,0
1660892842.275794093,1714,1660892842.275794093,gps,0,0,35.6533147000,139.7924910567,4.3150000000,0,0,0,0,0,0,0,0,0,0
1660892842.468009219,1715,1660892842.468009219,gps,0,0,35.6533147217,139.7924910900,4.3140000000,0,0,0,0,0,0,0,0,0,0
1660892842.668254425,1716,1660892842.668254425,gps,0,0,35.6533147317,139.7924911233,4.3170000000,0,0,0,0,0,0,0,0,0,0
1660892842.867863020,1717,1660892842.867863020,gps,0,0,35.6533147300,139.7924911467,4.3110000000,0,0,0,0,0,0,0,0,0,0
1660892843.073831056,1718,1660892843.073831056,gps,0,0,35.6533146967,139.7924911167,4.3150000000,0,0,0,0,0,0,0,0,0,0
1660892843.273717591,1719,1660892843.273717591,gps,0,0,35.6533146667,139.7924910867,4.3150000000,0,0,0,0,0,0,0,0,0,0
1660892843.467743261,1720,1660892843.467743261,gps,0,0,35.6533146000,139.7924910500,4.3180000000,0,0,0,0,0,0,0,0,0,0
1660892843.666982204,1721,1660892843.666982204,gps,0,0,35.6533145817,139.7924910633,4.3090000000,0,0,0,0,0,0,0,0,0,0
1660892843.864922556,1722,1660892843.864922556,gps,0,0,35.6533145567,139.7924910717,4.3140000000,0,0,0,0,0,0,0,0,0,0
1660892844.075304448,1723,1660892844.075304448,gps,0,0,35.6533145950,139.7924910950,4.3110000000,0,0,0,0,0,0,0,0,0,0
1660892844.284540713,1724,1660892844.284540713,gps,0,0,35.6533146567,139.7924911483,4.3100000000,0,0,0,0,0,0,0,0,0,0
1660892844.467961033,1725,1660892844.467961033,gps,0,0,35.6533147517,139.7924911633,4.3150000000,0,0,0,0,0,0,0,0,0,0
1660892844.668881956,1726,1660892844.668881956,gps,0,0,35.6533147867,139.7924910917,4.3210000000,0,0,0,0,0,0,0,0,0,0
1660892844.866925030,1727,1660892844.866925030,gps,0,0,35.6533148633,139.7924910417,4.3160000000,0,0,0,0,0,0,0,0,0,0
1660892845.071784039,1728,1660892845.071784039,gps,0,0,35.6533148517,139.7924910150,4.3150000000,0,0,0,0,0,0,0,0,0,0
1660892845.268493873,1729,1660892845.268493873,gps,0,0,35.6533148783,139.7924910183,4.3150000000,0,0,0,0,0,0,0,0,0,0
1660892845.468011155,1730,1660892845.468011155,gps,0,0,35.6533148883,139.7924910150,4.3180000000,0,0,0,0,0,0,0,0,0,0
1660892845.667686852,1731,1660892845.667686852,gps,0,0,35.6533149050,139.7924909900,4.3130000000,0,0,0,0,0,0,0,0,0,0
1660892845.868581651,1732,1660892845.868581651,gps,0,0,35.6533149017,139.7924909233,4.3190000000,0,0,0,0,0,0,0,0,0,0
1660892846.073762806,1733,1660892846.073762806,gps,0,0,35.6533149233,139.7924909083,4.3190000000,0,0,0,0,0,0,0,0,0,0
1660892846.279714907,1734,1660892846.279714907,gps,0,0,35.6533149600,139.7924909017,4.3110000000,0,0,0,0,0,0,0,0,0,0
1660892846.469956953,1735,1660892846.469956953,gps,0,0,35.6533149817,139.7924909150,4.3120000000,0,0,0,0,0,0,0,0,0,0
1660892846.669868978,1736,1660892846.669868978,gps,0,0,35.6533149633,139.7924908817,4.3140000000,0,0,0,0,0,0,0,0,0,0
1660892846.868746755,1737,1660892846.868746755,gps,0,0,35.6533149650,139.7924908733,4.3090000000,0,0,0,0,0,0,0,0,0,0
1660892847.069822812,1738,1660892847.069822812,gps,0,0,35.6533149633,139.7924908417,4.3100000000,0,0,0,0,0,0,0,0,0,0
1660892847.269537455,1739,1660892847.269537455,gps,0,0,35.6533149667,139.7924908283,4.3090000000,0,0,0,0,0,0,0,0,0,0
1660892847.468250775,1740,1660892847.468250775,gps,0,0,35.6533149450,139.7924907900,4.3080000000,0,0,0,0,0,0,0,0,0,0
1660892847.669757762,1741,1660892847.669757762,gps,0,0,35.6533149033,139.7924907767,4.3070000000,0,0,0,0,0,0,0,0,0,0
1660892847.868245072,1742,1660892847.868245072,gps,0,0,35.6533148967,139.7924907800,4.3040000000,0,0,0,0,0,0,0,0,0,0
1660892848.072940049,1743,1660892848.072940049,gps,0,0,35.6533148833,139.7924907467,4.3100000000,0,0,0,0,0,0,0,0,0,0
1660892848.285930483,1744,1660892848.285930483,gps,0,0,35.6533148783,139.7924907167,4.2960000000,0,0,0,0,0,0,0,0,0,0
1660892848.468467775,1745,1660892848.468467775,gps,0,0,35.6533148650,139.7924907267,4.3030000000,0,0,0,0,0,0,0,0,0,0
1660892848.669071194,1746,1660892848.669071194,gps,0,0,35.6533148250,139.7924907783,4.3000000000,0,0,0,0,0,0,0,0,0,0
1660892848.861091129,1747,1660892848.861091129,gps,0,0,35.6533148300,139.7924907950,4.2960000000,0,0,0,0,0,0,0,0,0,0
1660892849.074618999,1748,1660892849.074618999,gps,0,0,35.6533148083,139.7924908017,4.2970000000,0,0,0,0,0,0,0,0,0,0
1660892849.274816292,1749,1660892849.274816292,gps,0,0,35.6533147900,139.7924907650,4.2990000000,0,0,0,0,0,0,0,0,0,0
1660892849.468507845,1750,1660892849.468507845,gps,0,0,35.6533147950,139.7924907600,4.2950000000,0,0,0,0,0,0,0,0,0,0
1660892849.671507692,1751,1660892849.671507692,gps,0,0,35.6533147900,139.7924907283,4.2900000000,0,0,0,0,0,0,0,0,0,0
1660892849.866852334,1752,1660892849.866852334,gps,0,0,35.6533148117,139.7924906500,4.2940000000,0,0,0,0,0,0,0,0,0,0
1660892850.076915081,1753,1660892850.076915081,gps,0,0,35.6533148950,139.7924905917,4.2980000000,0,0,0,0,0,0,0,0,0,0
1660892850.275697792,1754,1660892850.275697792,gps,0,0,35.6533148517,139.7924905400,4.3010000000,0,0,0,0,0,0,0,0,0,0
1660892850.470691136,1755,1660892850.470691136,gps,0,0,35.6533148700,139.7924905117,4.2960000000,0,0,0,0,0,0,0,0,0,0
1660892850.663376272,1756,1660892850.663376272,gps,0,0,35.6533148833,139.7924905167,4.2980000000,0,0,0,0,0,0,0,0,0,0
1660892850.868466589,1757,1660892850.868466589,gps,0,0,35.6533149067,139.7924904533,4.2970000000,0,0,0,0,0,0,0,0,0,0
1660892851.077699458,1758,1660892851.077699458,gps,0,0,35.6533148983,139.7924904433,4.3000000000,0,0,0,0,0,0,0,0,0,0
1660892851.278346175,1759,1660892851.278346175,gps,0,0,35.6533148983,139.7924904967,4.3010000000,0,0,0,0,0,0,0,0,0,0
1660892851.470882304,1760,1660892851.470882304,gps,0,0,35.6533148900,139.7924905067,4.2960000000,0,0,0,0,0,0,0,0,0,0
1660892851.669967641,1761,1660892851.669967641,gps,0,0,35.6533148850,139.7924904967,4.2970000000,0,0,0,0,0,0,0,0,0,0
1660892851.870918577,1762,1660892851.870918577,gps,0,0,35.6533148917,139.7924905133,4.2920000000,0,0,0,0,0,0,0,0,0,0
1660892852.075977991,1763,1660892852.075977991,gps,0,0,35.6533148600,139.7924905283,4.2960000000,0,0,0,0,0,0,0,0,0,0
1660892852.275800627,1764,1660892852.275800627,gps,0,0,35.6533148483,139.7924905000,4.2940000000,0,0,0,0,0,0,0,0,0,0
1660892852.461997574,1765,1660892852.461997574,gps,0,0,35.6533148417,139.7924904150,4.2900000000,0,0,0,0,0,0,0,0,0,0
1660892852.667823316,1766,1660892852.667823316,gps,0,0,35.6533148867,139.7924902100,4.2930000000,0,0,0,0,0,0,0,0,0,0
1660892852.865916563,1767,1660892852.865916563,gps,0,0,35.6533149100,139.7924903017,4.2950000000,0,0,0,0,0,0,0,0,0,0
1660892853.074686025,1768,1660892853.074686025,gps,0,0,35.6533148900,139.7924903967,4.3030000000,0,0,0,0,0,0,0,0,0,0
1660892853.273825297,1769,1660892853.273825297,gps,0,0,35.6533148700,139.7924906050,4.2970000000,0,0,0,0,0,0,0,0,0,0
1660892853.467613793,1770,1660892853.467613793,gps,0,0,35.6533148200,139.7924906367,4.3010000000,0,0,0,0,0,0,0,0,0,0
1660892853.667928753,1771,1660892853.667928753,gps,0,0,35.6533148200,139.7924906133,4.2990000000,0,0,0,0,0,0,0,0,0,0
1660892853.867964014,1772,1660892853.867964014,gps,0,0,35.6533148317,139.7924905517,4.2990000000,0,0,0,0,0,0,0,0,0,0
1660892854.071931419,1773,1660892854.071931419,gps,0,0,35.6533148750,139.7924905583,4.2950000000,0,0,0,0,0,0,0,0,0,0
1660892854.267897190,1774,1660892854.267897190,gps,0,0,35.6533149567,139.7924905067,4.3000000000,0,0,0,0,0,0,0,0,0,0
1660892854.468560647,1775,1660892854.468560647,gps,0,0,35.6533150650,139.7924904050,4.3020000000,0,0,0,0,0,0,0,0,0,0
1660892854.667981564,1776,1660892854.667981564,gps,0,0,35.6533152133,139.7924904050,4.2940000000,0,0,0,0,0,0,0,0,0,0
1660892854.867822097,1777,1660892854.867822097,gps,0,0,35.6533154250,139.7924904367,4.2930000000,0,0,0,0,0,0,0,0,0,0
1660892855.073996837,1778,1660892855.073996837,gps,0,0,35.6533156367,139.7924905233,4.2990000000,0,0,0,0,0,0,0,0,0,0
1660892855.274733025,1779,1660892855.274733025,gps,0,0,35.6533160017,139.7924907150,4.2950000000,0,0,0,0,0,0,0,0,0,0
1660892855.469972367,1780,1660892855.469972367,gps,0,0,35.6533161433,139.7924910933,4.2790000000,0,0,0,0,0,0,0,0,0,0
1660892855.670649459,1781,1660892855.670649459,gps,0,0,35.6533161817,139.7924915083,4.2750000000,0,0,0,0,0,0,0,0,0,0
1660892855.868010187,1782,1660892855.868010187,gps,0,0,35.6533163117,139.7924919900,4.2790000000,0,0,0,0,0,0,0,0,0,0
1660892856.067722323,1783,1660892856.067722323,gps,0,0,35.6533165033,139.7924924717,4.2750000000,0,0,0,0,0,0,0,0,0,0
1660892856.275569139,1784,1660892856.275569139,gps,0,0,35.6533165300,139.7924926150,4.2810000000,0,0,0,0,0,0,0,0,0,0
1660892856.468483874,1785,1660892856.468483874,gps,0,0,35.6533166783,139.7924930133,4.2630000000,0,0,0,0,0,0,0,0,0,0
1660892856.673029650,1786,1660892856.673029650,gps,0,0,35.6533168250,139.7924932233,4.2600000000,0,0,0,0,0,0,0,0,0,0
1660892856.868904520,1787,1660892856.868904520,gps,0,0,35.6533171533,139.7924935183,4.2590000000,0,0,0,0,0,0,0,0,0,0
1660892857.074026331,1788,1660892857.074026331,gps,0,0,35.6533177083,139.7924941717,4.2670000000,0,0,0,0,0,0,0,0,0,0
1660892857.277139223,1789,1660892857.277139223,gps,0,0,35.6533186867,139.7924951917,4.2670000000,0,0,0,0,0,0,0,0,0,0
1660892857.469656261,1790,1660892857.469656261,gps,0,0,35.6533199250,139.7924962400,4.2520000000,0,0,0,0,0,0,0,0,0,0
1660892857.668604782,1791,1660892857.668604782,gps,0,0,35.6533209300,139.7924969450,4.2650000000,0,0,0,0,0,0,0,0,0,0
1660892857.862063076,1792,1660892857.862063076,gps,0,0,35.6533217433,139.7924977750,4.2740000000,0,0,0,0,0,0,0,0,0,0
1660892858.075693684,1793,1660892858.075693684,gps,0,0,35.6533227967,139.7924992133,4.2520000000,0,0,0,0,0,0,0,0,0,0
1660892858.276689131,1794,1660892858.276689131,gps,0,0,35.6533240683,139.7925008617,4.2730000000,0,0,0,0,0,0,0,0,0,0
1660892858.470574645,1795,1660892858.470574645,gps,0,0,35.6533247550,139.7925021467,4.2930000000,0,0,0,0,0,0,0,0,0,0
1660892858.667907037,1796,1660892858.667907037,gps,0,0,35.6533255683,139.7925036417,4.3030000000,0,0,0,0,0,0,0,0,0,0
1660892858.866837726,1797,1660892858.866837726,gps,0,0,35.6533267083,139.7925050350,4.3290000000,0,0,0,0,0,0,0,0,0,0
1660892859.074607028,1798,1660892859.074607028,gps,0,0,35.6533274917,139.7925059850,4.3540000000,0,0,0,0,0,0,0,0,0,0
1660892859.270764498,1799,1660892859.270764498,gps,0,0,35.6533285150,139.7925075417,4.3270000000,0,0,0,0,0,0,0,0,0,0
1660892859.469574782,1800,1660892859.469574782,gps,0,0,35.6533293633,139.7925088550,4.3230000000,0,0,0,0,0,0,0,0,0,0
1660892859.664895062,1801,1660892859.664895062,gps,0,0,35.6533300433,139.7925098800,4.3620000000,0,0,0,0,0,0,0,0,0,0
1660892859.870633690,1802,1660892859.870633690,gps,0,0,35.6533312000,139.7925113150,4.3470000000,0,0,0,0,0,0,0,0,0,0
1660892860.074547979,1803,1660892860.074547979,gps,0,0,35.6533326983,139.7925127717,4.3340000000,0,0,0,0,0,0,0,0,0,0
1660892860.278079980,1804,1660892860.278079980,gps,0,0,35.6533337333,139.7925138350,4.3720000000,0,0,0,0,0,0,0,0,0,0
1660892860.468706375,1805,1660892860.468706375,gps,0,0,35.6533345000,139.7925151067,4.3670000000,0,0,0,0,0,0,0,0,0,0
1660892860.667952403,1806,1660892860.667952403,gps,0,0,35.6533353600,139.7925167317,4.3330000000,0,0,0,0,0,0,0,0,0,0
1660892860.866948922,1807,1660892860.866948922,gps,0,0,35.6533357950,139.7925181933,4.3630000000,0,0,0,0,0,0,0,0,0,0
1660892861.072926699,1808,1660892861.072926699,gps,0,0,35.6533365433,139.7925195233,4.3760000000,0,0,0,0,0,0,0,0,0,0
1660892861.274867286,1809,1660892861.274867286,gps,0,0,35.6533378900,139.7925211783,4.3590000000,0,0,0,0,0,0,0,0,0,0
1660892861.462751393,1810,1660892861.462751393,gps,0,0,35.6533392333,139.7925227500,4.3800000000,0,0,0,0,0,0,0,0,0,0
1660892861.668611609,1811,1660892861.668611609,gps,0,0,35.6533399350,139.7925238550,4.4080000000,0,0,0,0,0,0,0,0,0,0
1660892861.865938817,1812,1660892861.865938817,gps,0,0,35.6533409800,139.7925254767,4.3540000000,0,0,0,0,0,0,0,0,0,0
1660892862.076669820,1813,1660892862.076669820,gps,0,0,35.6533420083,139.7925270517,4.3640000000,0,0,0,0,0,0,0,0,0,0
1660892862.275803380,1814,1660892862.275803380,gps,0,0,35.6533426783,139.7925281533,4.3950000000,0,0,0,0,0,0,0,0,0,0
1660892862.468196867,1815,1660892862.468196867,gps,0,0,35.6533437767,139.7925296633,4.3800000000,0,0,0,0,0,0,0,0,0,0
1660892862.669605443,1816,1660892862.669605443,gps,0,0,35.6533454050,139.7925315317,4.3570000000,0,0,0,0,0,0,0,0,0,0
1660892862.867771736,1817,1660892862.867771736,gps,0,0,35.6533463483,139.7925328150,4.3970000000,0,0,0,0,0,0,0,0,0,0
1660892863.076016792,1818,1660892863.076016792,gps,0,0,35.6533472100,139.7925343333,4.3920000000,0,0,0,0,0,0,0,0,0,0
1660892863.270012758,1819,1660892863.270012758,gps,0,0,35.6533484583,139.7925363083,4.3710000000,0,0,0,0,0,0,0,0,0,0
1660892863.469909062,1820,1660892863.469909062,gps,0,0,35.6533492500,139.7925375133,4.4060000000,0,0,0,0,0,0,0,0,0,0
1660892863.671530166,1821,1660892863.671530166,gps,0,0,35.6533501467,139.7925387133,4.4000000000,0,0,0,0,0,0,0,0,0,0
1660892863.869650622,1822,1660892863.869650622,gps,0,0,35.6533514500,139.7925403767,4.3860000000,0,0,0,0,0,0,0,0,0,0
1660892864.076754015,1823,1660892864.076754015,gps,0,0,35.6533522850,139.7925416400,4.4130000000,0,0,0,0,0,0,0,0,0,0
1660892864.277886596,1824,1660892864.277886596,gps,0,0,35.6533529367,139.7925429883,4.4180000000,0,0,0,0,0,0,0,0,0,0
1660892864.469725190,1825,1660892864.469725190,gps,0,0,35.6533538883,139.7925450367,4.3810000000,0,0,0,0,0,0,0,0,0,0
1660892864.669827252,1826,1660892864.669827252,gps,0,0,35.6533546767,139.7925465817,4.4060000000,0,0,0,0,0,0,0,0,0,0
1660892864.868628827,1827,1660892864.868628827,gps,0,0,35.6533555800,139.7925480533,4.4020000000,0,0,0,0,0,0,0,0,0,0
1660892865.068992390,1828,1660892865.068992390,gps,0,0,35.6533568200,139.7925497967,4.3780000000,0,0,0,0,0,0,0,0,0,0
1660892865.273870301,1829,1660892865.273870301,gps,0,0,35.6533578233,139.7925512400,4.4060000000,0,0,0,0,0,0,0,0,0,0
1660892865.469637672,1830,1660892865.469637672,gps,0,0,35.6533584067,139.7925524367,4.4240000000,0,0,0,0,0,0,0,0,0,0
1660892865.671822366,1831,1660892865.671822366,gps,0,0,35.6533593383,139.7925541850,4.3940000000,0,0,0,0,0,0,0,0,0,0
1660892865.868814816,1832,1660892865.868814816,gps,0,0,35.6533601250,139.7925558117,4.4010000000,0,0,0,0,0,0,0,0,0,0
1660892866.075875734,1833,1660892866.075875734,gps,0,0,35.6533608250,139.7925568450,4.4280000000,0,0,0,0,0,0,0,0,0,0
1660892866.276990674,1834,1660892866.276990674,gps,0,0,35.6533620383,139.7925582417,4.4020000000,0,0,0,0,0,0,0,0,0,0
1660892866.469539324,1835,1660892866.469539324,gps,0,0,35.6533635767,139.7925595633,4.4000000000,0,0,0,0,0,0,0,0,0,0
1660892866.668882858,1836,1660892866.668882858,gps,0,0,35.6533646333,139.7925608050,4.4310000000,0,0,0,0,0,0,0,0,0,0
1660892866.863571882,1837,1660892866.863571882,gps,0,0,35.6533655133,139.7925623717,4.4190000000,0,0,0,0,0,0,0,0,0,0
1660892867.076876842,1838,1660892867.076876842,gps,0,0,35.6533663567,139.7925644950,4.4060000000,0,0,0,0,0,0,0,0,0,0
1660892867.275674196,1839,1660892867.275674196,gps,0,0,35.6533670250,139.7925658833,4.4330000000,0,0,0,0,0,0,0,0,0,0
1660892867.470034223,1840,1660892867.470034223,gps,0,0,35.6533677700,139.7925670317,4.4360000000,0,0,0,0,0,0,0,0,0,0
1660892867.669456731,1841,1660892867.669456731,gps,0,0,35.6533690550,139.7925685500,4.4160000000,0,0,0,0,0,0,0,0,0,0
1660892867.868539339,1842,1660892867.868539339,gps,0,0,35.6533701000,139.7925696650,4.4460000000,0,0,0,0,0,0,0,0,0,0
1660892868.075922885,1843,1660892868.075922885,gps,0,0,35.6533706667,139.7925710117,4.4640000000,0,0,0,0,0,0,0,0,0,0
1660892868.269711464,1844,1660892868.269711464,gps,0,0,35.6533715650,139.7925729733,4.4230000000,0,0,0,0,0,0,0,0,0,0
1660892868.463994830,1845,1660892868.463994830,gps,0,0,35.6533723633,139.7925747067,4.4350000000,0,0,0,0,0,0,0,0,0,0
1660892868.659754302,1846,1660892868.659754302,gps,0,0,35.6533730850,139.7925759767,4.4640000000,0,0,0,0,0,0,0,0,0,0
1660892868.863717207,1847,1660892868.863717207,gps,0,0,35.6533742400,139.7925774833,4.4360000000,0,0,0,0,0,0,0,0,0,0
1660892869.068801905,1848,1660892869.068801905,gps,0,0,35.6533756567,139.7925791267,4.4520000000,0,0,0,0,0,0,0,0,0,0
1660892869.267887239,1849,1660892869.267887239,gps,0,0,35.6533765217,139.7925803617,4.4800000000,0,0,0,0,0,0,0,0,0,0
1660892869.467582190,1850,1660892869.467582190,gps,0,0,35.6533772050,139.7925819167,4.4520000000,0,0,0,0,0,0,0,0,0,0
1660892869.666005264,1851,1660892869.666005264,gps,0,0,35.6533779133,139.7925837517,4.4540000000,0,0,0,0,0,0,0,0,0,0
1660892869.866998142,1852,1660892869.866998142,gps,0,0,35.6533784217,139.7925847783,4.4870000000,0,0,0,0,0,0,0,0,0,0
1660892870.074956841,1853,1660892870.074956841,gps,0,0,35.6533792717,139.7925861033,4.4710000000,0,0,0,0,0,0,0,0,0,0
1660892870.274456967,1854,1660892870.274456967,gps,0,0,35.6533806733,139.7925877667,4.4490000000,0,0,0,0,0,0,0,0,0,0
1660892870.461771975,1855,1660892870.461771975,gps,0,0,35.6533817933,139.7925891350,4.4800000000,0,0,0,0,0,0,0,0,0,0
1660892870.667906290,1856,1660892870.667906290,gps,0,0,35.6533825033,139.7925906533,4.4980000000,0,0,0,0,0,0,0,0,0,0
1660892870.866025024,1857,1660892870.866025024,gps,0,0,35.6533834883,139.7925928400,4.4570000000,0,0,0,0,0,0,0,0,0,0
1660892871.074754192,1858,1660892871.074754192,gps,0,0,35.6533841750,139.7925941233,4.4950000000,0,0,0,0,0,0,0,0,0,0
1660892871.271689888,1859,1660892871.271689888,gps,0,0,35.6533851000,139.7925952317,4.5040000000,0,0,0,0,0,0,0,0,0,0
1660892871.466776742,1860,1660892871.466776742,gps,0,0,35.6533864350,139.7925968367,4.4480000000,0,0,0,0,0,0,0,0,0,0
1660892871.668880634,1861,1660892871.668880634,gps,0,0,35.6533875000,139.7925981833,4.4860000000,0,0,0,0,0,0,0,0,0,0
1660892871.863613364,1862,1660892871.863613364,gps,0,0,35.6533881267,139.7925994833,4.4990000000,0,0,0,0,0,0,0,0,0,0
1660892872.070743652,1863,1660892872.070743652,gps,0,0,35.6533891033,139.7926013550,4.4810000000,0,0,0,0,0,0,0,0,0,0
1660892872.268728777,1864,1660892872.268728777,gps,0,0,35.6533903000,139.7926030750,4.4790000000,0,0,0,0,0,0,0,0,0,0
1660892872.467047937,1865,1660892872.467047937,gps,0,0,35.6533910517,139.7926039967,4.4890000000,0,0,0,0,0,0,0,0,0,0
1660892872.666641028,1866,1660892872.666641028,gps,0,0,35.6533922217,139.7926053733,4.4600000000,0,0,0,0,0,0,0,0,0,0
1660892872.867849877,1867,1660892872.867849877,gps,0,0,35.6533933650,139.7926067933,4.4810000000,0,0,0,0,0,0,0,0,0,0
1660892873.074664726,1868,1660892873.074664726,gps,0,0,35.6533942117,139.7926080733,4.5090000000,0,0,0,0,0,0,0,0,0,0
1660892873.273694281,1869,1660892873.273694281,gps,0,0,35.6533951833,139.7926098417,4.4860000000,0,0,0,0,0,0,0,0,0,0
1660892873.468439302,1870,1660892873.468439302,gps,0,0,35.6533959350,139.7926113133,4.5060000000,0,0,0,0,0,0,0,0,0,0
1660892873.668542823,1871,1660892873.668542823,gps,0,0,35.6533965483,139.7926123167,4.5210000000,0,0,0,0,0,0,0,0,0,0
1660892873.865564529,1872,1660892873.865564529,gps,0,0,35.6533977050,139.7926136417,4.4870000000,0,0,0,0,0,0,0,0,0,0
1660892874.065993668,1873,1660892874.065993668,gps,0,0,35.6533992433,139.7926152083,4.4810000000,0,0,0,0,0,0,0,0,0,0
1660892874.266022860,1874,1660892874.266022860,gps,0,0,35.6534002900,139.7926166917,4.5100000000,0,0,0,0,0,0,0,0,0,0
1660892874.465000724,1875,1660892874.465000724,gps,0,0,35.6534012667,139.7926184250,4.5010000000,0,0,0,0,0,0,0,0,0,0
1660892874.666703404,1876,1660892874.666703404,gps,0,0,35.6534021067,139.7926203733,4.4760000000,0,0,0,0,0,0,0,0,0,0
1660892874.863566760,1877,1660892874.863566760,gps,0,0,35.6534026000,139.7926214233,4.5190000000,0,0,0,0,0,0,0,0,0,0
1660892875.069431438,1878,1660892875.069431438,gps,0,0,35.6534036083,139.7926227250,4.5040000000,0,0,0,0,0,0,0,0,0,0
1660892875.272737171,1879,1660892875.272737171,gps,0,0,35.6534051583,139.7926242483,4.4720000000,0,0,0,0,0,0,0,0,0,0
1660892875.465848303,1880,1660892875.465848303,gps,0,0,35.6534064933,139.7926253000,4.4970000000,0,0,0,0,0,0,0,0,0,0
1660892875.665853135,1881,1660892875.665853135,gps,0,0,35.6534072150,139.7926266050,4.4980000000,0,0,0,0,0,0,0,0,0,0
1660892875.862734757,1882,1660892875.862734757,gps,0,0,35.6534080433,139.7926285083,4.4630000000,0,0,0,0,0,0,0,0,0,0
1660892876.074488691,1883,1660892876.074488691,gps,0,0,35.6534088517,139.7926303967,4.4810000000,0,0,0,0,0,0,0,0,0,0
1660892876.274110864,1884,1660892876.274110864,gps,0,0,35.6534093817,139.7926316983,4.5060000000,0,0,0,0,0,0,0,0,0,0
1660892876.468300113,1885,1660892876.468300113,gps,0,0,35.6534105250,139.7926333250,4.4730000000,0,0,0,0,0,0,0,0,0,0
1660892876.667769370,1886,1660892876.667769370,gps,0,0,35.6534120300,139.7926349117,4.4780000000,0,0,0,0,0,0,0,0,0,0
1660892876.865700395,1887,1660892876.865700395,gps,0,0,35.6534128833,139.7926362167,4.5080000000,0,0,0,0,0,0,0,0,0,0
1660892877.072874459,1888,1660892877.072874459,gps,0,0,35.6534136250,139.7926377917,4.5000000000,0,0,0,0,0,0,0,0,0,0
1660892877.268864110,1889,1660892877.268864110,gps,0,0,35.6534145800,139.7926398267,4.4900000000,0,0,0,0,0,0,0,0,0,0
1660892877.466995613,1890,1660892877.466995613,gps,0,0,35.6534151800,139.7926410683,4.5300000000,0,0,0,0,0,0,0,0,0,0
1660892877.661333633,1891,1660892877.661333633,gps,0,0,35.6534161733,139.7926425433,4.5170000000,0,0,0,0,0,0,0,0,0,0
1660892877.865601439,1892,1660892877.865601439,gps,0,0,35.6534176983,139.7926443567,4.5020000000,0,0,0,0,0,0,0,0,0,0
1660892878.069878318,1893,1660892878.069878318,gps,0,0,35.6534188233,139.7926458833,4.5310000000,0,0,0,0,0,0,0,0,0,0
1660892878.273934218,1894,1660892878.273934218,gps,0,0,35.6534194617,139.7926471700,4.5470000000,0,0,0,0,0,0,0,0,0,0
1660892878.465865945,1895,1660892878.465865945,gps,0,0,35.6534203767,139.7926490700,4.5040000000,0,0,0,0,0,0,0,0,0,0
1660892878.664949744,1896,1660892878.664949744,gps,0,0,35.6534210583,139.7926506000,4.5100000000,0,0,0,0,0,0,0,0,0,0
1660892878.865579452,1897,1660892878.865579452,gps,0,0,35.6534218133,139.7926517217,4.5260000000,0,0,0,0,0,0,0,0,0,0
1660892879.071612260,1898,1660892879.071612260,gps,0,0,35.6534231817,139.7926534300,4.4960000000,0,0,0,0,0,0,0,0,0,0
1660892879.272859130,1899,1660892879.272859130,gps,0,0,35.6534244917,139.7926549750,4.5100000000,0,0,0,0,0,0,0,0,0,0
1660892879.462027200,1900,1660892879.462027200,gps,0,0,35.6534249733,139.7926562983,4.5500000000,0,0,0,0,0,0,0,0,0,0
1660892879.667897279,1901,1660892879.667897279,gps,0,0,35.6534257800,139.7926581833,4.5160000000,0,0,0,0,0,0,0,0,0,0
1660892879.867979973,1902,1660892879.867979973,gps,0,0,35.6534268300,139.7926600417,4.5350000000,0,0,0,0,0,0,0,0,0,0
1660892880.078344534,1903,1660892880.078344534,gps,0,0,35.6534274917,139.7926610733,4.5560000000,0,0,0,0,0,0,0,0,0,0
1660892880.273661781,1904,1660892880.273661781,gps,0,0,35.6534285933,139.7926625850,4.5170000000,0,0,0,0,0,0,0,0,0,0
1660892880.465842722,1905,1660892880.465842722,gps,0,0,35.6534301967,139.7926642350,4.5230000000,0,0,0,0,0,0,0,0,0,0
1660892880.666088746,1906,1660892880.666088746,gps,0,0,35.6534309567,139.7926655817,4.5540000000,0,0,0,0,0,0,0,0,0,0
1660892880.863990334,1907,1660892880.863990334,gps,0,0,35.6534316900,139.7926671933,4.5390000000,0,0,0,0,0,0,0,0,0,0
1660892881.068991845,1908,1660892881.068991845,gps,0,0,35.6534328150,139.7926693367,4.5340000000,0,0,0,0,0,0,0,0,0,0
1660892881.262075827,1909,1660892881.262075827,gps,0,0,35.6534337000,139.7926706717,4.5610000000,0,0,0,0,0,0,0,0,0,0
1660892881.468129829,1910,1660892881.468129829,gps,0,0,35.6534346817,139.7926720933,4.5560000000,0,0,0,0,0,0,0,0,0,0
1660892881.666991049,1911,1660892881.666991049,gps,0,0,35.6534361900,139.7926737767,4.5430000000,0,0,0,0,0,0,0,0,0,0
1660892881.867121292,1912,1660892881.867121292,gps,0,0,35.6534371183,139.7926748733,4.5620000000,0,0,0,0,0,0,0,0,0,0
1660892882.072013315,1913,1660892882.072013315,gps,0,0,35.6534379533,139.7926763117,4.5570000000,0,0,0,0,0,0,0,0,0,0
1660892882.273441713,1914,1660892882.273441713,gps,0,0,35.6534389967,139.7926783950,4.5170000000,0,0,0,0,0,0,0,0,0,0
1660892882.465966180,1915,1660892882.465966180,gps,0,0,35.6534400133,139.7926803100,4.5400000000,0,0,0,0,0,0,0,0,0,0
1660892882.667077051,1916,1660892882.667077051,gps,0,0,35.6534409083,139.7926816183,4.5680000000,0,0,0,0,0,0,0,0,0,0
1660892882.895906714,1917,1660892882.895906714,gps,0,0,35.6534424817,139.7926834200,4.5500000000,0,0,0,0,0,0,0,0,0,0
1660892883.100898446,1918,1660892883.100898446,gps,0,0,35.6534439567,139.7926849283,4.5900000000,0,0,0,0,0,0,0,0,0,0
1660892883.276978611,1919,1660892883.276978611,gps,0,0,35.6534446783,139.7926863533,4.5910000000,0,0,0,0,0,0,0,0,0,0
1660892883.468994640,1920,1660892883.468994640,gps,0,0,35.6534455967,139.7926881350,4.5750000000,0,0,0,0,0,0,0,0,0,0
1660892883.671074341,1921,1660892883.671074341,gps,0,0,35.6534465683,139.7926901483,4.5610000000,0,0,0,0,0,0,0,0,0,0
1660892883.868011975,1922,1660892883.868011975,gps,0,0,35.6534473800,139.7926915033,4.5960000000,0,0,0,0,0,0,0,0,0,0
1660892884.074103283,1923,1660892884.074103283,gps,0,0,35.6534485233,139.7926930133,4.5830000000,0,0,0,0,0,0,0,0,0,0
1660892884.275737334,1924,1660892884.275737334,gps,0,0,35.6534501500,139.7926946717,4.5530000000,0,0,0,0,0,0,0,0,0,0
1660892884.469048721,1925,1660892884.469048721,gps,0,0,35.6534511733,139.7926959317,4.6030000000,0,0,0,0,0,0,0,0,0,0
1660892884.667926959,1926,1660892884.667926959,gps,0,0,35.6534518517,139.7926975000,4.5960000000,0,0,0,0,0,0,0,0,0,0
1660892884.861752584,1927,1660892884.861752584,gps,0,0,35.6534527983,139.7926997700,4.5530000000,0,0,0,0,0,0,0,0,0,0
1660892885.076781994,1928,1660892885.076781994,gps,0,0,35.6534533333,139.7927013833,4.5960000000,0,0,0,0,0,0,0,0,0,0
1660892885.275859336,1929,1660892885.275859336,gps,0,0,35.6534540783,139.7927027050,4.6060000000,0,0,0,0,0,0,0,0,0,0
1660892885.471591938,1930,1660892885.471591938,gps,0,0,35.6534555817,139.7927046133,4.5690000000,0,0,0,0,0,0,0,0,0,0
1660892885.669759977,1931,1660892885.669759977,gps,0,0,35.6534570083,139.7927060950,4.5940000000,0,0,0,0,0,0,0,0,0,0
1660892885.867848841,1932,1660892885.867848841,gps,0,0,35.6534579300,139.7927078100,4.6050000000,0,0,0,0,0,0,0,0,0,0
1660892886.077761509,1933,1660892886.077761509,gps,0,0,35.6534589017,139.7927098583,4.5830000000,0,0,0,0,0,0,0,0,0,0
1660892886.276515768,1934,1660892886.276515768,gps,0,0,35.6534595133,139.7927115850,4.6110000000,0,0,0,0,0,0,0,0,0,0
1660892886.470840553,1935,1660892886.470840553,gps,0,0,35.6534603517,139.7927129250,4.6300000000,0,0,0,0,0,0,0,0,0,0
1660892886.664495428,1936,1660892886.664495428,gps,0,0,35.6534615700,139.7927142150,4.5880000000,0,0,0,0,0,0,0,0,0,0
1660892886.870021954,1937,1660892886.870021954,gps,0,0,35.6534631667,139.7927157300,4.5770000000,0,0,0,0,0,0,0,0,0,0
1660892887.077724652,1938,1660892887.077724652,gps,0,0,35.6534641017,139.7927170567,4.6270000000,0,0,0,0,0,0,0,0,0,0
1660892887.277925335,1939,1660892887.277925335,gps,0,0,35.6534649867,139.7927187017,4.6090000000,0,0,0,0,0,0,0,0,0,0
1660892887.470479440,1940,1660892887.470479440,gps,0,0,35.6534661467,139.7927206567,4.5980000000,0,0,0,0,0,0,0,0,0,0
1660892887.669126525,1941,1660892887.669126525,gps,0,0,35.6534668700,139.7927220650,4.6080000000,0,0,0,0,0,0,0,0,0,0
1660892887.869835488,1942,1660892887.869835488,gps,0,0,35.6534677000,139.7927232633,4.6010000000,0,0,0,0,0,0,0,0,0,0
1660892888.076071353,1943,1660892888.076071353,gps,0,0,35.6534690400,139.7927248450,4.5630000000,0,0,0,0,0,0,0,0,0,0
1660892888.277742478,1944,1660892888.277742478,gps,0,0,35.6534702817,139.7927260433,4.6310000000,0,0,0,0,0,0,0,0,0,0
1660892888.464772649,1945,1660892888.464772649,gps,0,0,35.6534710683,139.7927274350,4.6550000000,0,0,0,0,0,0,0,0,0,0
1660892888.669840849,1946,1660892888.669840849,gps,0,0,35.6534720333,139.7927292300,4.5900000000,0,0,0,0,0,0,0,0,0,0
1660892888.867825809,1947,1660892888.867825809,gps,0,0,35.6534729483,139.7927310917,4.6100000000,0,0,0,0,0,0,0,0,0,0
1660892889.075823905,1948,1660892889.075823905,gps,0,0,35.6534736167,139.7927323417,4.6230000000,0,0,0,0,0,0,0,0,0,0
1660892889.274876242,1949,1660892889.274876242,gps,0,0,35.6534745783,139.7927338683,4.6070000000,0,0,0,0,0,0,0,0,0,0
1660892889.467966925,1950,1660892889.467966925,gps,0,0,35.6534760183,139.7927355650,4.5820000000,0,0,0,0,0,0,0,0,0,0
1660892889.668823538,1951,1660892889.668823538,gps,0,0,35.6534769717,139.7927369050,4.6200000000,0,0,0,0,0,0,0,0,0,0
1660892889.867050662,1952,1660892889.867050662,gps,0,0,35.6534776867,139.7927384800,4.6290000000,0,0,0,0,0,0,0,0,0,0
1660892890.071906886,1953,1660892890.071906886,gps,0,0,35.6534786433,139.7927405083,4.5910000000,0,0,0,0,0,0,0,0,0,0
1660892890.268658329,1954,1660892890.268658329,gps,0,0,35.6534794367,139.7927422233,4.6310000000,0,0,0,0,0,0,0,0,0,0
1660892890.467727950,1955,1660892890.467727950,gps,0,0,35.6534804467,139.7927435867,4.6390000000,0,0,0,0,0,0,0,0,0,0
1660892890.666895933,1956,1660892890.666895933,gps,0,0,35.6534818850,139.7927453667,4.5940000000,0,0,0,0,0,0,0,0,0,0
1660892890.867103966,1957,1660892890.867103966,gps,0,0,35.6534831467,139.7927471983,4.6330000000,0,0,0,0,0,0,0,0,0,0
1660892891.073062869,1958,1660892891.073062869,gps,0,0,35.6534837950,139.7927486600,4.6520000000,0,0,0,0,0,0,0,0,0,0
1660892891.273852378,1959,1660892891.273852378,gps,0,0,35.6534847950,139.7927506617,4.6180000000,0,0,0,0,0,0,0,0,0,0
1660892891.468830491,1960,1660892891.468830491,gps,0,0,35.6534854383,139.7927519000,4.6520000000,0,0,0,0,0,0,0,0,0,0
1660892891.668883309,1961,1660892891.668883309,gps,0,0,35.6534861317,139.7927532383,4.6520000000,0,0,0,0,0,0,0,0,0,0
1660892891.866912949,1962,1660892891.866912949,gps,0,0,35.6534875567,139.7927550300,4.6120000000,0,0,0,0,0,0,0,0,0,0
1660892892.070807118,1963,1660892892.070807118,gps,0,0,35.6534888867,139.7927566383,4.6300000000,0,0,0,0,0,0,0,0,0,0
1660892892.276593569,1964,1660892892.276593569,gps,0,0,35.6534895867,139.7927579100,4.6430000000,0,0,0,0,0,0,0,0,0,0
1660892892.467795928,1965,1660892892.467795928,gps,0,0,35.6534905467,139.7927596950,4.6010000000,0,0,0,0,0,0,0,0,0,0
1660892892.668965500,1966,1660892892.668965500,gps,0,0,35.6534914400,139.7927614850,4.6150000000,0,0,0,0,0,0,0,0,0,0
1660892892.866922123,1967,1660892892.866922123,gps,0,0,35.6534923483,139.7927627850,4.6470000000,0,0,0,0,0,0,0,0,0,0
1660892893.072074334,1968,1660892893.072074334,gps,0,0,35.6534936167,139.7927643650,4.6470000000,0,0,0,0,0,0,0,0,0,0
1660892893.275738195,1969,1660892893.275738195,gps,0,0,35.6534951167,139.7927659700,4.6300000000,0,0,0,0,0,0,0,0,0,0
1660892893.468052424,1970,1660892893.468052424,gps,0,0,35.6534958067,139.7927672533,4.6660000000,0,0,0,0,0,0,0,0,0,0
1660892893.668042104,1971,1660892893.668042104,gps,0,0,35.6534965783,139.7927690550,4.6390000000,0,0,0,0,0,0,0,0,0,0
1660892893.860893148,1972,1660892893.860893148,gps,0,0,35.6534975033,139.7927711400,4.6360000000,0,0,0,0,0,0,0,0,0,0
1660892894.071777588,1973,1660892894.071777588,gps,0,0,35.6534980717,139.7927725200,4.6750000000,0,0,0,0,0,0,0,0,0,0
1660892894.271953286,1974,1660892894.271953286,gps,0,0,35.6534989483,139.7927739383,4.6700000000,0,0,0,0,0,0,0,0,0,0
1660892894.468867846,1975,1660892894.468867846,gps,0,0,35.6535004600,139.7927756383,4.6530000000,0,0,0,0,0,0,0,0,0,0
1660892894.666711981,1976,1660892894.666711981,gps,0,0,35.6535016867,139.7927768333,4.6610000000,0,0,0,0,0,0,0,0,0,0
1660892894.864667855,1977,1660892894.864667855,gps,0,0,35.6535024233,139.7927782533,4.6760000000,0,0,0,0,0,0,0,0,0,0
1660892895.075487738,1978,1660892895.075487738,gps,0,0,35.6535034933,139.7927805333,4.6350000000,0,0,0,0,0,0,0,0,0,0
1660892895.268942264,1979,1660892895.268942264,gps,0,0,35.6535041700,139.7927825983,4.6640000000,0,0,0,0,0,0,0,0,0,0
1660892895.468867369,1980,1660892895.468867369,gps,0,0,35.6535049317,139.7927839150,4.6850000000,0,0,0,0,0,0,0,0,0,0
1660892895.665526505,1981,1660892895.665526505,gps,0,0,35.6535061583,139.7927854483,4.6460000000,0,0,0,0,0,0,0,0,0,0
1660892895.869515008,1982,1660892895.869515008,gps,0,0,35.6535077683,139.7927869517,4.6300000000,0,0,0,0,0,0,0,0,0,0
1660892896.075823511,1983,1660892896.075823511,gps,0,0,35.6535086683,139.7927883633,4.6670000000,0,0,0,0,0,0,0,0,0,0
1660892896.277827709,1984,1660892896.277827709,gps,0,0,35.6535094933,139.7927901417,4.6690000000,0,0,0,0,0,0,0,0,0,0
1660892896.470892712,1985,1660892896.470892712,gps,0,0,35.6535104450,139.7927923583,4.6360000000,0,0,0,0,0,0,0,0,0,0
1660892896.669720510,1986,1660892896.669720510,gps,0,0,35.6535108717,139.7927936467,4.7160000000,0,0,0,0,0,0,0,0,0,0
1660892896.869543346,1987,1660892896.869543346,gps,0,0,35.6535118067,139.7927950933,4.6790000000,0,0,0,0,0,0,0,0,0,0
1660892897.075870217,1988,1660892897.075870217,gps,0,0,35.6535134433,139.7927968033,4.6250000000,0,0,0,0,0,0,0,0,0,0
1660892897.276854090,1989,1660892897.276854090,gps,0,0,35.6535148850,139.7927982200,4.6570000000,0,0,0,0,0,0,0,0,0,0
1660892897.463767588,1990,1660892897.463767588,gps,0,0,35.6535156183,139.7927997183,4.6870000000,0,0,0,0,0,0,0,0,0,0
1660892897.669735242,1991,1660892897.669735242,gps,0,0,35.6535166400,139.7928018800,4.6440000000,0,0,0,0,0,0,0,0,0,0
1660892897.868675301,1992,1660892897.868675301,gps,0,0,35.6535174783,139.7928039383,4.6650000000,0,0,0,0,0,0,0,0,0,0
1660892898.078909135,1993,1660892898.078909135,gps,0,0,35.6535182067,139.7928051233,4.6670000000,0,0,0,0,0,0,0,0,0,0
1660892898.275884798,1994,1660892898.275884798,gps,0,0,35.6535194367,139.7928066817,4.6400000000,0,0,0,0,0,0,0,0,0,0
1660892898.469051364,1995,1660892898.469051364,gps,0,0,35.6535209267,139.7928081983,4.6250000000,0,0,0,0,0,0,0,0,0,0
1660892898.670785986,1996,1660892898.670785986,gps,0,0,35.6535218233,139.7928096850,4.6700000000,0,0,0,0,0,0,0,0,0,0
1660892898.868924860,1997,1660892898.868924860,gps,0,0,35.6535227733,139.7928114950,4.6660000000,0,0,0,0,0,0,0,0,0,0
1660892899.074041677,1998,1660892899.074041677,gps,0,0,35.6535239900,139.7928136600,4.6740000000,0,0,0,0,0,0,0,0,0,0
1660892899.267814369,1999,1660892899.267814369,gps,0,0,35.6535250183,139.7928150383,4.6990000000,0,0,0,0,0,0,0,0,0,0
1660892899.466647158,2000,1660892899.466647158,gps,0,0,35.6535260083,139.7928164117,4.7120000000,0,0,0,0,0,0,0,0,0,0
1660892899.663905383,2001,1660892899.663905383,gps,0,0,35.6535274183,139.7928179583,4.6710000000,0,0,0,0,0,0,0,0,0,0
1660892899.865176257,2002,1660892899.865176257,gps,0,0,35.6535282750,139.7928191233,4.7100000000,0,0,0,0,0,0,0,0,0,0
1660892900.069765288,2003,1660892900.069765288,gps,0,0,35.6535292267,139.7928207600,4.7000000000,0,0,0,0,0,0,0,0,0,0
1660892900.272866642,2004,1660892900.272866642,gps,0,0,35.6535303567,139.7928229150,4.6800000000,0,0,0,0,0,0,0,0,0,0
1660892900.466724860,2005,1660892900.466724860,gps,0,0,35.6535310567,139.7928244633,4.7090000000,0,0,0,0,0,0,0,0,0,0
1660892900.665930964,2006,1660892900.665930964,gps,0,0,35.6535318317,139.7928254433,4.7200000000,0,0,0,0,0,0,0,0,0,0
1660892900.862750507,2007,1660892900.862750507,gps,0,0,35.6535332967,139.7928269783,4.6760000000,0,0,0,0,0,0,0,0,0,0
1660892901.063828184,2008,1660892901.063828184,gps,0,0,35.6535347550,139.7928286333,4.6910000000,0,0,0,0,0,0,0,0,0,0
1660892901.265814758,2009,1660892901.265814758,gps,0,0,35.6535356150,139.7928300717,4.7350000000,0,0,0,0,0,0,0,0,0,0
1660892901.464836854,2010,1660892901.464836854,gps,0,0,35.6535364883,139.7928320683,4.7050000000,0,0,0,0,0,0,0,0,0,0
1660892901.665673468,2011,1660892901.665673468,gps,0,0,35.6535372250,139.7928339300,4.6970000000,0,0,0,0,0,0,0,0,0,0
1660892901.867636833,2012,1660892901.867636833,gps,0,0,35.6535378300,139.7928352583,4.7230000000,0,0,0,0,0,0,0,0,0,0
1660892902.069822157,2013,1660892902.069822157,gps,0,0,35.6535390300,139.7928367133,4.7110000000,0,0,0,0,0,0,0,0,0,0
1660892902.269960988,2014,1660892902.269960988,gps,0,0,35.6535407483,139.7928383817,4.6710000000,0,0,0,0,0,0,0,0,0,0
1660892902.466948901,2015,1660892902.466948901,gps,0,0,35.6535420000,139.7928397083,4.7240000000,0,0,0,0,0,0,0,0,0,0
1660892902.665993029,2016,1660892902.665993029,gps,0,0,35.6535428933,139.7928413550,4.6960000000,0,0,0,0,0,0,0,0,0,0
1660892902.859845217,2017,1660892902.859845217,gps,0,0,35.6535439400,139.7928432850,4.6740000000,0,0,0,0,0,0,0,0,0,0
1660892903.071962527,2018,1660892903.071962527,gps,0,0,35.6535447000,139.7928447617,4.7100000000,0,0,0,0,0,0,0,0,0,0
1660892903.275014500,2019,1660892903.275014500,gps,0,0,35.6535453700,139.7928460733,4.7150000000,0,0,0,0,0,0,0,0,0,0
1660892903.468880137,2020,1660892903.468880137,gps,0,0,35.6535467467,139.7928477417,4.6690000000,0,0,0,0,0,0,0,0,0,0
1660892903.668859989,2021,1660892903.668859989,gps,0,0,35.6535481083,139.7928492950,4.6770000000,0,0,0,0,0,0,0,0,0,0
1660892903.866686705,2022,1660892903.866686705,gps,0,0,35.6535490100,139.7928508850,4.6960000000,0,0,0,0,0,0,0,0,0,0
1660892904.074805613,2023,1660892904.074805613,gps,0,0,35.6535500700,139.7928530517,4.6850000000,0,0,0,0,0,0,0,0,0,0
1660892904.271974947,2024,1660892904.271974947,gps,0,0,35.6535508433,139.7928551067,4.7020000000,0,0,0,0,0,0,0,0,0,0
1660892904.466097124,2025,1660892904.466097124,gps,0,0,35.6535515350,139.7928564483,4.7430000000,0,0,0,0,0,0,0,0,0,0
1660892904.660623935,2026,1660892904.660623935,gps,0,0,35.6535526933,139.7928579350,4.7160000000,0,0,0,0,0,0,0,0,0,0
1660892904.865047090,2027,1660892904.865047090,gps,0,0,35.6535542317,139.7928595700,4.7120000000,0,0,0,0,0,0,0,0,0,0
1660892905.070730563,2028,1660892905.070730563,gps,0,0,35.6535550383,139.7928610217,4.7480000000,0,0,0,0,0,0,0,0,0,0
1660892905.274449920,2029,1660892905.274449920,gps,0,0,35.6535557800,139.7928629083,4.6950000000,0,0,0,0,0,0,0,0,0,0
1660892905.464935041,2030,1660892905.464935041,gps,0,0,35.6535565350,139.7928649633,4.6950000000,0,0,0,0,0,0,0,0,0,0
1660892905.663633459,2031,1660892905.663633459,gps,0,0,35.6535569900,139.7928664600,4.7340000000,0,0,0,0,0,0,0,0,0,0
1660892905.896000872,2032,1660892905.896000872,gps,0,0,35.6535581050,139.7928681333,4.6470000000,0,0,0,0,0,0,0,0,0,0
1660892906.069523873,2033,1660892906.069523873,gps,0,0,35.6535598383,139.7928698700,4.6030000000,0,0,0,0,0,0,0,0,0,0
1660892906.271771981,2034,1660892906.271771981,gps,0,0,35.6535611383,139.7928714950,4.6410000000,0,0,0,0,0,0,0,0,0,0
1660892906.459803894,2035,1660892906.459803894,gps,0,0,35.6535619833,139.7928729483,4.6430000000,0,0,0,0,0,0,0,0,0,0
1660892906.664785003,2036,1660892906.664785003,gps,0,0,35.6535629917,139.7928751050,4.6270000000,0,0,0,0,0,0,0,0,0,0
1660892906.861844598,2037,1660892906.861844598,gps,0,0,35.6535637350,139.7928768933,4.6730000000,0,0,0,0,0,0,0,0,0,0
1660892907.069614149,2038,1660892907.069614149,gps,0,0,35.6535646250,139.7928782683,4.7020000000,0,0,0,0,0,0,0,0,0,0
1660892907.265946398,2039,1660892907.265946398,gps,0,0,35.6535664150,139.7928801700,4.6360000000,0,0,0,0,0,0,0,0,0,0
1660892907.463911104,2040,1660892907.463911104,gps,0,0,35.6535680517,139.7928817583,4.6490000000,0,0,0,0,0,0,0,0,0,0
1660892907.666862175,2041,1660892907.666862175,gps,0,0,35.6535689317,139.7928834083,4.6690000000,0,0,0,0,0,0,0,0,0,0
1660892907.864583597,2042,1660892907.864583597,gps,0,0,35.6535698717,139.7928855250,4.6420000000,0,0,0,0,0,0,0,0,0,0
1660892908.069634365,2043,1660892908.069634365,gps,0,0,35.6535705133,139.7928873667,4.6730000000,0,0,0,0,0,0,0,0,0,0
1660892908.267537196,2044,1660892908.267537196,gps,0,0,35.6535712117,139.7928886250,4.6690000000,0,0,0,0,0,0,0,0,0,0
1660892908.467610337,2045,1660892908.467610337,gps,0,0,35.6535726200,139.7928903467,4.6740000000,0,0,0,0,0,0,0,0,0,0
1660892908.666013254,2046,1660892908.666013254,gps,0,0,35.6535743200,139.7928917883,4.6860000000,0,0,0,0,0,0,0,0,0,0
1660892908.868743924,2047,1660892908.868743924,gps,0,0,35.6535751967,139.7928933783,4.7060000000,0,0,0,0,0,0,0,0,0,0
1660892909.073937902,2048,1660892909.073937902,gps,0,0,35.6535762967,139.7928957783,4.6450000000,0,0,0,0,0,0,0,0,0,0
1660892909.273756735,2049,1660892909.273756735,gps,0,0,35.6535772283,139.7928981883,4.6470000000,0,0,0,0,0,0,0,0,0,0
1660892909.467742577,2050,1660892909.467742577,gps,0,0,35.6535779733,139.7928995750,4.6970000000,0,0,0,0,0,0,0,0,0,0
1660892909.666876596,2051,1660892909.666876596,gps,0,0,35.6535793767,139.7929015050,4.6280000000,0,0,0,0,0,0,0,0,0,0
1660892909.862973184,2052,1660892909.862973184,gps,0,0,35.6535810850,139.7929032317,4.6050000000,0,0,0,0,0,0,0,0,0,0
1660892910.063986986,2053,1660892910.063986986,gps,0,0,35.6535820017,139.7929048617,4.6720000000,0,0,0,0,0,0,0,0,0,0
1660892910.265578783,2054,1660892910.265578783,gps,0,0,35.6535827017,139.7929069300,4.6500000000,0,0,0,0,0,0,0,0,0,0
1660892910.464857848,2055,1660892910.464857848,gps,0,0,35.6535836017,139.7929093483,4.6100000000,0,0,0,0,0,0,0,0,0,0
1660892910.664957221,2056,1660892910.664957221,gps,0,0,35.6535842733,139.7929106400,4.6890000000,0,0,0,0,0,0,0,0,0,0
1660892910.863689704,2057,1660892910.863689704,gps,0,0,35.6535854200,139.7929122817,4.6660000000,0,0,0,0,0,0,0,0,0,0
1660892911.068991538,2058,1660892911.068991538,gps,0,0,35.6535871683,139.7929139250,4.6270000000,0,0,0,0,0,0,0,0,0,0
1660892911.267549625,2059,1660892911.267549625,gps,0,0,35.6535885400,139.7929154100,4.6640000000,0,0,0,0,0,0,0,0,0,0
1660892911.465652463,2060,1660892911.465652463,gps,0,0,35.6535894467,139.7929172533,4.6500000000,0,0,0,0,0,0,0,0,0,0
1660892911.664551296,2061,1660892911.664551296,gps,0,0,35.6535905467,139.7929195883,4.6360000000,0,0,0,0,0,0,0,0,0,0
1660892911.859004887,2062,1660892911.859004887,gps,0,0,35.6535913483,139.7929214033,4.6640000000,0,0,0,0,0,0,0,0,0,0
1660892912.073634125,2063,1660892912.073634125,gps,0,0,35.6535920750,139.7929227733,4.6830000000,0,0,0,0,0,0,0,0,0,0
1660892912.269507779,2064,1660892912.269507779,gps,0,0,35.6535936567,139.7929247083,4.6370000000,0,0,0,0,0,0,0,0,0,0
1660892912.467005082,2065,1660892912.467005082,gps,0,0,35.6535949717,139.7929263567,4.6600000000,0,0,0,0,0,0,0,0,0,0
1660892912.665942551,2066,1660892912.665942551,gps,0,0,35.6535958667,139.7929280450,4.6840000000,0,0,0,0,0,0,0,0,0,0
1660892912.863888307,2067,1660892912.863888307,gps,0,0,35.6535970633,139.7929304333,4.6430000000,0,0,0,0,0,0,0,0,0,0
1660892913.070794785,2068,1660892913.070794785,gps,0,0,35.6535981783,139.7929324617,4.6370000000,0,0,0,0,0,0,0,0,0,0
1660892913.265582997,2069,1660892913.265582997,gps,0,0,35.6535991017,139.7929336950,4.6780000000,0,0,0,0,0,0,0,0,0,0
1660892913.465541871,2070,1660892913.465541871,gps,0,0,35.6536006567,139.7929355817,4.6520000000,0,0,0,0,0,0,0,0,0,0
1660892913.661760282,2071,1660892913.661760282,gps,0,0,35.6536021217,139.7929374783,4.6470000000,0,0,0,0,0,0,0,0,0,0
1660892913.865815810,2072,1660892913.865815810,gps,0,0,35.6536028067,139.7929391550,4.6720000000,0,0,0,0,0,0,0,0,0,0
1660892914.069925455,2073,1660892914.069925455,gps,0,0,35.6536038400,139.7929415100,4.6220000000,0,0,0,0,0,0,0,0,0,0
1660892914.268529274,2074,1660892914.268529274,gps,0,0,35.6536048033,139.7929436317,4.6470000000,0,0,0,0,0,0,0,0,0,0
1660892914.468506099,2075,1660892914.468506099,gps,0,0,35.6536056400,139.7929447950,4.7000000000,0,0,0,0,0,0,0,0,0,0
1660892914.667760899,2076,1660892914.667760899,gps,0,0,35.6536072933,139.7929467167,4.6770000000,0,0,0,0,0,0,0,0,0,0
1660892914.868814460,2077,1660892914.868814460,gps,0,0,35.6536089917,139.7929484367,4.7000000000,0,0,0,0,0,0,0,0,0,0
1660892915.074934786,2078,1660892915.074934786,gps,0,0,35.6536096817,139.7929498050,4.7480000000,0,0,0,0,0,0,0,0,0,0
1660892915.301792565,2079,1660892915.301792565,gps,0,0,35.6536104267,139.7929519317,4.7200000000,0,0,0,0,0,0,0,0,0,0
1660892915.460858159,2080,1660892915.460858159,gps,0,0,35.6536115883,139.7929541300,4.7260000000,0,0,0,0,0,0,0,0,0,0
1660892915.667701953,2081,1660892915.667701953,gps,0,0,35.6536124300,139.7929553617,4.7630000000,0,0,0,0,0,0,0,0,0,0
1660892915.864612265,2082,1660892915.864612265,gps,0,0,35.6536139533,139.7929572417,4.7290000000,0,0,0,0,0,0,0,0,0,0
1660892916.073926494,2083,1660892916.073926494,gps,-1,0,35.6536139950,139.7929609617,3.1280000000,0,0,0,0,0,0,0,0,0,0
1660892916.264719842,2084,1660892916.264719842,gps,-1,0,35.6536159300,139.7929624500,2.7210000000,0,0,0,0,0,0,0,0,0,0
1660892916.463994604,2085,1660892916.463994604,gps,-1,0,35.6536173950,139.7929653367,2.5440000000,0,0,0,0,0,0,0,0,0,0
1660892916.665459801,2086,1660892916.665459801,gps,-1,0,35.6536188383,139.7929678883,2.4500000000,0,0,0,0,0,0,0,0,0,0
1660892916.863666317,2087,1660892916.863666317,gps,-1,0,35.6536203900,139.7929694583,2.4100000000,0,0,0,0,0,0,0,0,0,0
1660892917.067808989,2088,1660892917.067808989,gps,-1,0,35.6536221600,139.7929716267,2.3430000000,0,0,0,0,0,0,0,0,0,0
1660892917.259027270,2089,1660892917.259027270,gps,-1,0,35.6536238833,139.7929736967,2.3330000000,0,0,0,0,0,0,0,0,0,0
1660892917.465469018,2090,1660892917.465469018,gps,-1,0,35.6536249050,139.7929754567,2.3350000000,0,0,0,0,0,0,0,0,0,0
1660892917.663975512,2091,1660892917.663975512,gps,-1,0,35.6536262067,139.7929774600,2.3030000000,0,0,0,0,0,0,0,0,0,0
1660892917.862791242,2092,1660892917.862791242,gps,-1,0,35.6536274300,139.7929799583,2.3130000000,0,0,0,0,0,0,0,0,0,0
1660892918.067830035,2093,1660892918.067830035,gps,-1,0,35.6536290333,139.7929804717,2.3270000000,0,0,0,0,0,0,0,0,0,0
1660892918.263628808,2094,1660892918.263628808,gps,-1,0,35.6536304850,139.7929820333,2.2900000000,0,0,0,0,0,0,0,0,0,0
1660892918.464751382,2095,1660892918.464751382,gps,-1,0,35.6536322067,139.7929839600,2.3050000000,0,0,0,0,0,0,0,0,0,0
1660892918.663718415,2096,1660892918.663718415,gps,-1,0,35.6536333917,139.7929855333,2.3500000000,0,0,0,0,0,0,0,0,0,0
1660892918.860775048,2097,1660892918.860775048,gps,-1,0,35.6536344867,139.7929879233,2.3270000000,0,0,0,0,0,0,0,0,0,0
1660892919.062517435,2098,1660892919.062517435,gps,-1,0,35.6536356917,139.7929903800,2.3320000000,0,0,0,0,0,0,0,0,0,0
1660892919.262730154,2099,1660892919.262730154,gps,-1,0,35.6536366533,139.7929913017,2.3750000000,0,0,0,0,0,0,0,0,0,0
1660892919.462690738,2100,1660892919.462690738,gps,-1,0,35.6536378117,139.7929926867,2.3570000000,0,0,0,0,0,0,0,0,0,0
1660892919.658646137,2101,1660892919.658646137,gps,-1,0,35.6536393500,139.7929942967,2.3590000000,0,0,0,0,0,0,0,0,0,0
1660892919.857043153,2102,1660892919.857043153,gps,-1,0,35.6536402217,139.7929956850,2.4040000000,0,0,0,0,0,0,0,0,0,0
1660892920.062642839,2103,1660892920.062642839,gps,-1,0,35.6536415633,139.7929977267,2.4050000000,0,0,0,0,0,0,0,0,0,0
1660892920.258445545,2104,1660892920.258445545,gps,-1,0,35.6536426483,139.7930001717,2.3910000000,0,0,0,0,0,0,0,0,0,0
1660892920.458559825,2105,1660892920.458559825,gps,-1,0,35.6536436050,139.7930017750,2.4460000000,0,0,0,0,0,0,0,0,0,0
1660892920.657994273,2106,1660892920.657994273,gps,-1,0,35.6536446267,139.7930032000,2.4380000000,0,0,0,0,0,0,0,0,0,0
1660892920.852757078,2107,1660892920.852757078,gps,-1,0,35.6536460783,139.7930050967,2.4190000000,0,0,0,0,0,0,0,0,0,0
1660892921.065629423,2108,1660892921.065629423,gps,-1,0,35.6536474467,139.7930065700,2.4540000000,0,0,0,0,0,0,0,0,0,0
1660892921.255976724,2109,1660892921.255976724,gps,-1,0,35.6536484567,139.7930082167,2.4900000000,0,0,0,0,0,0,0,0,0,0
1660892921.459790813,2110,1660892921.459790813,gps,-1,0,35.6536493983,139.7930104367,2.4450000000,0,0,0,0,0,0,0,0,0,0
1660892921.661853744,2111,1660892921.661853744,gps,-1,0,35.6536501350,139.7930122633,2.4820000000,0,0,0,0,0,0,0,0,0,0
1660892921.858420137,2112,1660892921.858420137,gps,-1,0,35.6536508300,139.7930134167,2.5240000000,0,0,0,0,0,0,0,0,0,0
1660892922.063906536,2113,1660892922.063906536,gps,-1,0,35.6536521900,139.7930152050,2.4740000000,0,0,0,0,0,0,0,0,0,0
1660892922.260915495,2114,1660892922.260915495,gps,-1,0,35.6536537867,139.7930170833,2.4990000000,0,0,0,0,0,0,0,0,0,0
1660892922.459645240,2115,1660892922.459645240,gps,-1,0,35.6536545700,139.7930186500,2.5590000000,0,0,0,0,0,0,0,0,0,0
1660892922.653963881,2116,1660892922.653963881,gps,-1,0,35.6536556700,139.7930206667,2.5190000000,0,0,0,0,0,0,0,0,0,0
1660892922.858957121,2117,1660892922.858957121,gps,-1,0,35.6536565967,139.7930226683,2.5590000000,0,0,0,0,0,0,0,0,0,0
1660892923.067886588,2118,1660892923.067886588,gps,-1,0,35.6536575250,139.7930236433,2.6100000000,0,0,0,0,0,0,0,0,0,0
1660892923.259975209,2119,1660892923.259975209,gps,-1,0,35.6536589617,139.7930248250,2.6400000000,0,0,0,0,0,0,0,0,0,0
1660892923.457656463,2120,1660892923.457656463,gps,-1,0,35.6536606750,139.7930265283,2.6420000000,0,0,0,0,0,0,0,0,0,0
1660892923.655292121,2121,1660892923.655292121,gps,-1,0,35.6536619017,139.7930278767,2.7030000000,0,0,0,0,0,0,0,0,0,0
1660892923.853955231,2122,1660892923.853955231,gps,-1,0,35.6536628400,139.7930294433,2.7020000000,0,0,0,0,0,0,0,0,0,0
1660892924.059596602,2123,1660892924.059596602,gps,-1,0,35.6536638200,139.7930317050,2.6810000000,0,0,0,0,0,0,0,0,0,0
1660892924.254575223,2124,1660892924.254575223,gps,-1,0,35.6536644217,139.7930329483,2.7560000000,0,0,0,0,0,0,0,0,0,0
1660892924.449971332,2125,1660892924.449971332,gps,-1,0,35.6536653900,139.7930340517,2.8040000000,0,0,0,0,0,0,0,0,0,0
1660892924.655331627,2126,1660892924.655331627,gps,-1,0,35.6536670133,139.7930357467,2.7640000000,0,0,0,0,0,0,0,0,0,0
1660892924.852510928,2127,1660892924.852510928,gps,-1,0,35.6536686517,139.7930370817,2.8130000000,0,0,0,0,0,0,0,0,0,0
1660892925.060627952,2128,1660892925.060627952,gps,-1,0,35.6536694250,139.7930380850,2.9000000000,0,0,0,0,0,0,0,0,0,0
1660892925.255654047,2129,1660892925.255654047,gps,-1,0,35.6536705367,139.7930400067,2.8640000000,0,0,0,0,0,0,0,0,0,0
1660892925.454771771,2130,1660892925.454771771,gps,-1,0,35.6536715183,139.7930419767,2.8940000000,0,0,0,0,0,0,0,0,0,0
1660892925.656702273,2131,1660892925.656702273,gps,-1,0,35.6536723950,139.7930430867,2.9580000000,0,0,0,0,0,0,0,0,0,0
1660892925.853544152,2132,1660892925.853544152,gps,-1,0,35.6536735900,139.7930441633,2.9540000000,0,0,0,0,0,0,0,0,0,0
1660892926.061790990,2133,1660892926.061790990,gps,-1,0,35.6536751067,139.7930456133,2.9810000000,0,0,0,0,0,0,0,0,0,0
1660892926.251352529,2134,1660892926.251352529,gps,-1,0,35.6536760917,139.7930468800,3.0410000000,0,0,0,0,0,0,0,0,0,0
1660892926.455677069,2135,1660892926.455677069,gps,-1,0,35.6536768850,139.7930486050,3.0610000000,0,0,0,0,0,0,0,0,0,0
1660892926.656835174,2136,1660892926.656835174,gps,-1,0,35.6536780617,139.7930507400,3.0390000000,0,0,0,0,0,0,0,0,0,0
1660892926.855932148,2137,1660892926.855932148,gps,-1,0,35.6536787083,139.7930518317,3.1190000000,0,0,0,0,0,0,0,0,0,0
1660892927.061939392,2138,1660892927.061939392,gps,-1,0,35.6536797417,139.7930529750,3.1200000000,0,0,0,0,0,0,0,0,0,0
1660892927.255476282,2139,1660892927.255476282,gps,-1,0,35.6536815683,139.7930544517,3.1000000000,0,0,0,0,0,0,0,0,0,0
1660892927.456764706,2140,1660892927.456764706,gps,-1,0,35.6536832583,139.7930557567,3.1640000000,0,0,0,0,0,0,0,0,0,0
1660892927.656004868,2141,1660892927.656004868,gps,-1,0,35.6536841450,139.7930572217,3.1870000000,0,0,0,0,0,0,0,0,0,0
1660892927.853646552,2142,1660892927.853646552,gps,-1,0,35.6536852550,139.7930591883,3.1730000000,0,0,0,0,0,0,0,0,0,0
1660892928.055421069,2143,1660892928.055421069,gps,-1,0,35.6536860433,139.7930609733,3.2260000000,0,0,0,0,0,0,0,0,0,0
1660892928.255017971,2144,1660892928.255017971,gps,-1,0,35.6536870183,139.7930620767,3.2480000000,0,0,0,0,0,0,0,0,0,0
1660892928.453994017,2145,1660892928.453994017,gps,-1,0,35.6536883800,139.7930636450,3.2310000000,0,0,0,0,0,0,0,0,0,0
1660892928.655795913,2146,1660892928.655795913,gps,-1,0,35.6536900333,139.7930650083,3.2790000000,0,0,0,0,0,0,0,0,0,0
1660892928.855996641,2147,1660892928.855996641,gps,-1,0,35.6536907417,139.7930662467,3.3170000000,0,0,0,0,0,0,0,0,0,0
1660892929.060664343,2148,1660892929.060664343,gps,-1,0,35.6536915667,139.7930679750,3.3500000000,0,0,0,0,0,0,0,0,0,0
1660892929.255760274,2149,1660892929.255760274,gps,-1,0,35.6536923083,139.7930700500,3.3700000000,0,0,0,0,0,0,0,0,0,0
1660892929.455486154,2150,1660892929.455486154,gps,-1,0,35.6536931533,139.7930716000,3.4220000000,0,0,0,0,0,0,0,0,0,0
1660892929.655425097,2151,1660892929.655425097,gps,-1,0,35.6536942150,139.7930730550,3.4210000000,0,0,0,0,0,0,0,0,0,0
1660892929.848877696,2152,1660892929.848877696,gps,-1,0,35.6536958633,139.7930742683,3.4280000000,0,0,0,0,0,0,0,0,0,0
1660892930.059078086,2153,1660892930.059078086,gps,-1,0,35.6536969467,139.7930749217,3.4900000000,0,0,0,0,0,0,0,0,0,0
1660892930.254783672,2154,1660892930.254783672,gps,-1,0,35.6536980917,139.7930763167,3.4830000000,0,0,0,0,0,0,0,0,0,0
1660892930.455756059,2155,1660892930.455756059,gps,-1,0,35.6536993517,139.7930784950,3.4530000000,0,0,0,0,0,0,0,0,0,0
1660892930.652961305,2156,1660892930.652961305,gps,-1,0,35.6536998633,139.7930803033,3.5130000000,0,0,0,0,0,0,0,0,0,0
1660892930.851750917,2157,1660892930.851750917,gps,-1,0,35.6537006983,139.7930816017,3.5200000000,0,0,0,0,0,0,0,0,0,0
1660892931.058467334,2158,1660892931.058467334,gps,-1,0,35.6537021800,139.7930834100,3.4980000000,0,0,0,0,0,0,0,0,0,0
1660892931.252892553,2159,1660892931.252892553,gps,-1,0,35.6537036117,139.7930851917,3.5510000000,0,0,0,0,0,0,0,0,0,0
1660892931.451074568,2160,1660892931.451074568,gps,-1,0,35.6537044500,139.7930865450,3.5810000000,0,0,0,0,0,0,0,0,0,0
1660892931.648009126,2161,1660892931.648009126,gps,-1,0,35.6537059133,139.7930885683,3.5440000000,0,0,0,0,0,0,0,0,0,0
1660892931.851014321,2162,1660892931.851014321,gps,-1,0,35.6537070350,139.7930903983,3.6070000000,0,0,0,0,0,0,0,0,0,0
1660892932.056942068,2163,1660892932.056942068,gps,-1,0,35.6537078633,139.7930910700,3.6960000000,0,0,0,0,0,0,0,0,0,0
1660892932.254092031,2164,1660892932.254092031,gps,-1,0,35.6537093333,139.7930927217,3.6520000000,0,0,0,0,0,0,0,0,0,0
1660892932.455009313,2165,1660892932.455009313,gps,-1,0,35.6537108850,139.7930942050,3.7000000000,0,0,0,0,0,0,0,0,0,0
1660892932.654997772,2166,1660892932.654997772,gps,-1,0,35.6537118217,139.7930958333,3.7080000000,0,0,0,0,0,0,0,0,0,0
1660892932.854072671,2167,1660892932.854072671,gps,-1,0,35.6537129883,139.7930978383,3.7080000000,0,0,0,0,0,0,0,0,0,0
1660892933.058045971,2168,1660892933.058045971,gps,-1,0,35.6537140350,139.7931000533,3.7210000000,0,0,0,0,0,0,0,0,0,0
1660892933.255412014,2169,1660892933.255412014,gps,-1,0,35.6537148083,139.7931008000,3.8070000000,0,0,0,0,0,0,0,0,0,0
1660892933.451923591,2170,1660892933.451923591,gps,-1,0,35.6537161717,139.7931020583,3.7960000000,0,0,0,0,0,0,0,0,0,0
1660892933.655945458,2171,1660892933.655945458,gps,-1,0,35.6537180550,139.7931034600,3.7940000000,0,0,0,0,0,0,0,0,0,0
1660892933.853533553,2172,1660892933.853533553,gps,-1,0,35.6537190933,139.7931041700,3.8650000000,0,0,0,0,0,0,0,0,0,0
1660892934.060767303,2173,1660892934.060767303,gps,-1,0,35.6537202433,139.7931055733,3.8850000000,0,0,0,0,0,0,0,0,0,0
1660892934.254648274,2174,1660892934.254648274,gps,-1,0,35.6537215817,139.7931079317,3.8650000000,0,0,0,0,0,0,0,0,0,0
1660892934.453888269,2175,1660892934.453888269,gps,-1,0,35.6537224133,139.7931091600,3.9440000000,0,0,0,0,0,0,0,0,0,0
1660892934.656632501,2176,1660892934.656632501,gps,-1,0,35.6537235567,139.7931103400,3.9690000000,0,0,0,0,0,0,0,0,0,0
1660892934.855088202,2177,1660892934.855088202,gps,-1,0,35.6537252567,139.7931121033,3.9720000000,0,0,0,0,0,0,0,0,0,0
1660892935.059480198,2178,1660892935.059480198,gps,-1,0,35.6537266700,139.7931133100,4.0450000000,0,0,0,0,0,0,0,0,0,0
1660892935.251820685,2179,1660892935.251820685,gps,-1,0,35.6537277183,139.7931149617,4.0710000000,0,0,0,0,0,0,0,0,0,0
1660892935.455470980,2180,1660892935.455470980,gps,-1,0,35.6537288800,139.7931172117,4.0600000000,0,0,0,0,0,0,0,0,0,0
1660892935.652020301,2181,1660892935.652020301,gps,-1,0,35.6537299150,139.7931193467,4.1060000000,0,0,0,0,0,0,0,0,0,0
1660892935.853567648,2182,1660892935.853567648,gps,-1,0,35.6537307750,139.7931203683,4.1540000000,0,0,0,0,0,0,0,0,0,0
1660892936.058418184,2183,1660892936.058418184,gps,-1,0,35.6537325550,139.7931223333,4.0830000000,0,0,0,0,0,0,0,0,0,0
1660892936.252798847,2184,1660892936.252798847,gps,-1,0,35.6537339700,139.7931237500,4.1470000000,0,0,0,0,0,0,0,0,0,0
1660892936.454888324,2185,1660892936.454888324,gps,-1,0,35.6537348483,139.7931250550,4.1900000000,0,0,0,0,0,0,0,0,0,0
1660892936.656410446,2186,1660892936.656410446,gps,-1,0,35.6537361583,139.7931271200,4.1230000000,0,0,0,0,0,0,0,0,0,0
1660892936.853665899,2187,1660892936.853665899,gps,-1,0,35.6537371667,139.7931291083,4.1570000000,0,0,0,0,0,0,0,0,0,0
1660892937.053944240,2188,1660892937.053944240,gps,-1,0,35.6537379533,139.7931301633,4.1930000000,0,0,0,0,0,0,0,0,0,0
1660892937.253907674,2189,1660892937.253907674,gps,-1,0,35.6537394450,139.7931320517,4.1300000000,0,0,0,0,0,0,0,0,0,0
1660892937.451850788,2190,1660892937.451850788,gps,-1,0,35.6537409367,139.7931337267,4.1650000000,0,0,0,0,0,0,0,0,0,0
1660892937.653839783,2191,1660892937.653839783,gps,-1,0,35.6537417333,139.7931351617,4.2300000000,0,0,0,0,0,0,0,0,0,0
1660892937.852626019,2192,1660892937.852626019,gps,-1,0,35.6537427183,139.7931372400,4.2120000000,0,0,0,0,0,0,0,0,0,0
1660892938.058713831,2193,1660892938.058713831,gps,-1,0,35.6537437867,139.7931395400,4.2240000000,0,0,0,0,0,0,0,0,0,0
1660892938.255029948,2194,1660892938.255029948,gps,-1,0,35.6537444483,139.7931406350,4.2810000000,0,0,0,0,0,0,0,0,0,0
1660892938.452787123,2195,1660892938.452787123,gps,-1,0,35.6537458250,139.7931423383,4.2180000000,0,0,0,0,0,0,0,0,0,0
1660892938.651743544,2196,1660892938.651743544,gps,-1,0,35.6537475933,139.7931440133,4.2480000000,0,0,0,0,0,0,0,0,0,0
1660892938.848478290,2197,1660892938.848478290,gps,-1,0,35.6537486350,139.7931456767,4.2940000000,0,0,0,0,0,0,0,0,0,0
1660892939.058019616,2198,1660892939.058019616,gps,-1,0,35.6537496350,139.7931476783,4.2500000000,0,0,0,0,0,0,0,0,0,0
1660892939.253888220,2199,1660892939.253888220,gps,-1,0,35.6537507833,139.7931499300,4.2590000000,0,0,0,0,0,0,0,0,0,0
1660892939.455612402,2200,1660892939.455612402,gps,-1,0,35.6537517167,139.7931511667,4.2900000000,0,0,0,0,0,0,0,0,0,0
1660892939.654762992,2201,1660892939.654762992,gps,-1,0,35.6537530917,139.7931527617,4.2470000000,0,0,0,0,0,0,0,0,0,0
1660892939.851016171,2202,1660892939.851016171,gps,-1,0,35.6537548633,139.7931546333,4.2510000000,0,0,0,0,0,0,0,0,0,0
1660892940.058681455,2203,1660892940.058681455,gps,-1,0,35.6537556667,139.7931562717,4.2760000000,0,0,0,0,0,0,0,0,0,0
1660892940.252975640,2204,1660892940.252975640,gps,-1,0,35.6537564533,139.7931581883,4.2350000000,0,0,0,0,0,0,0,0,0,0
1660892940.449737944,2205,1660892940.449737944,gps,-1,0,35.6537575467,139.7931604033,4.2700000000,0,0,0,0,0,0,0,0,0,0
1660892940.646896675,2206,1660892940.646896675,gps,-1,0,35.6537583450,139.7931614983,4.3000000000,0,0,0,0,0,0,0,0,0,0
1660892940.849403124,2207,1660892940.849403124,gps,-1,0,35.6537595700,139.7931629100,4.2930000000,0,0,0,0,0,0,0,0,0,0
1660892941.055983520,2208,1660892941.055983520,gps,-1,0,35.6537612917,139.7931646233,4.2880000000,0,0,0,0,0,0,0,0,0,0
1660892941.251811895,2209,1660892941.251811895,gps,-1,0,35.6537621150,139.7931659000,4.2970000000,0,0,0,0,0,0,0,0,0,0
1660892941.453679468,2210,1660892941.453679468,gps,-1,0,35.6537630750,139.7931678133,4.2660000000,0,0,0,0,0,0,0,0,0,0
1660892941.651898966,2211,1660892941.651898966,gps,-1,0,35.6537644283,139.7931704833,4.2530000000,0,0,0,0,0,0,0,0,0,0
1660892941.852741434,2212,1660892941.852741434,gps,-1,0,35.6537652617,139.7931714850,4.3130000000,0,0,0,0,0,0,0,0,0,0
1660892942.058516807,2213,1660892942.058516807,gps,-1,0,35.6537662667,139.7931729150,4.2840000000,0,0,0,0,0,0,0,0,0,0
1660892942.251644357,2214,1660892942.251644357,gps,-1,0,35.6537680067,139.7931745150,4.2890000000,0,0,0,0,0,0,0,0,0,0
1660892942.448669448,2215,1660892942.448669448,gps,-1,0,35.6537691850,139.7931760017,4.3430000000,0,0,0,0,0,0,0,0,0,0
1660892942.653032202,2216,1660892942.653032202,gps,-1,0,35.6537701900,139.7931778767,4.3050000000,0,0,0,0,0,0,0,0,0,0
1660892942.850023005,2217,1660892942.850023005,gps,-1,0,35.6537714067,139.7931800467,4.2800000000,0,0,0,0,0,0,0,0,0,0
1660892943.058108849,2218,1660892943.058108849,gps,-1,0,35.6537726700,139.7931815100,4.3150000000,0,0,0,0,0,0,0,0,0,0
