field.header.seq,field.header.stamp,field.header.fream_if,field.status,field.status.service,field.latitude,field.longitude,field.altitude,position_convariance[0],positioon_convariance[1],positioon_convariance[2],positioon_convariance[3],positioon_convariance[4],positioon_convariance[5],positioon_convariance[6],positioon_convariance[7],positioon_convariance[8],position_covariance_type
1711,1660892841.663796504,gps,0,0,35.653315,139.792496,4.311000,0,0,0,0,0,0,0,0,0,0
1712,1660892841.866919818,gps,0,0,35.653315,139.792496,4.313000,0,0,0,0,0,0,0,0,0,0
1713,1660892842.072049450,gps,0,0,35.653315,139.792496,4.316000,0,0,0,0,0,0,0,0,0,0
1714,1660892842.275794093,gps,0,0,35.653315,139.792496,4.315000,0,0,0,0,0,0,0,0,0,0
1715,1660892842.468009219,gps,0,0,35.653315,139.792496,4.314000,0,0,0,0,0,0,0,0,0,0
1716,1660892842.668254425,gps,0,0,35.653315,139.792496,4.317000,0,0,0,0,0,0,0,0,0,0
1717,1660892842.867863020,gps,0,0,35.653315,139.792496,4.311000,0,0,0,0,0,0,0,0,0,0
1718,1660892843.073831056,gps,0,0,35.653315,139.792496,4.315000,0,0,0,0,0,0,0,0,0,0
1719,1660892843.273717591,gps,0,0,35.653315,139.792496,4.315000,0,0,0,0,0,0,0,0,0,0
1720,1660892843.467743261,gps,0,0,35.653315,139.792496,4.318000,0,0,0,0,0,0,0,0,0,0
1721,1660892843.666982204,gps,0,0,35.653315,139.792496,4.309000,0,0,0,0,0,0,0,0,0,0
1722,1660892843.864922556,gps,0,0,35.653315,139.792496,4.314000,0,0,0,0,0,0,0,0,0,0
1723,1660892844.075304448,gps,0,0,35.653315,139.792496,4.311000,0,0,0,0,0,0,0,0,0,0
1724,1660892844.284540713,gps,0,0,35.653315,139.792496,4.310000,0,0,0,0,0,0,0,0,0,0
1725,1660892844.467961033,gps,0,0,35.653315,139.792496,4.315000,0,0,0,0,0,0,0,0,0,0
1726,1660892844.668881956,gps,0,0,35.653315,139.792496,4.321000,0,0,0,0,0,0,0,0,0,0
1727,1660892844.866925030,gps,0,0,35.653315,139.792496,4.316000,0,0,0,0,0,0,0,0,0,0
1728,1660892845.071784039,gps,0,0,35.653315,139.792496,4.315000,0,0,0,0,0,0,0,0,0,0
1729,1660892845.268493873,gps,0,0,35.653315,139.792496,4.315000,0,0,0,0,0,0,0,0,0,0
1730,1660892845.468011155,gps,0,0,35.653315,139.792496,4.318000,0,0,0,0,0,0,0,0,0,0
1731,1660892845.667686852,gps,0,0,35.653315,139.792496,4.313000,0,0,0,0,0,0,0,0,0,0
1732,1660892845.868581651,gps,0,0,35.653315,139.792496,4.319000,0,0,0,0,0,0,0,0,0,0
1733,1660892846.073762806,gps,0,0,35.653315,139.792496,4.319000,0,0,0,0,0,0,0,0,0,0
1734,1660892846.279714907,gps,0,0,35.653315,139.792496,4.311000,0,0,0,0,0,0,0,0,0,0
1735,1660892846.469956953,gps,0,0,35.653315,139.792496,4.312000,0,0,0,0,0,0,0,0,0,0
1736,1660892846.669868978,gps,0,0,35.653315,139.792496,4.314000,0,0,0,0,0,0,0,0,0,0
1737,1660892846.868746755,gps,0,0,35.653315,139.792496,4.309000,0,0,0,0,0,0,0,0,0,0
1738,1660892847.069822812,gps,0,0,35.653315,139.792496,4.310000,0,0,0,0,0,0,0,0,0,0
1739,1660892847.269537455,gps,0,0,35.653315,139.792496,4.309000,0,0,0,0,0,0,0,0,0,0
1740,1660892847.468250775,gps,0,0,35.653315,139.792496,4.308000,0,0,0,0,0,0,0,0,0,0
1741,1660892847.669757762,gps,0,0,35.653315,139.792496,4.307000,0,0,0,0,0,0,0,0,0,0
1742,1660892847.868245072,gps,0,0,35.653315,139.792496,4.304000,0,0,0,0,0,0,0,0,0,0
1743,1660892848.072940049,gps,0,0,35.653315,139.792496,4.310000,0,0,0,0,0,0,0,0,0,0
1744,1660892848.285930483,gps,0,0,35.653315,139.792496,4.296000,0,0,0,0,0,0,0,0,0,0
1745,1660892848.468467775,gps,0,0,35.653315,139.792496,4.303000,0,0,0,0,0,0,0,0,0,0
1746,1660892848.669071194,gps,0,0,35.653315,139.792496,4.300000,0,0,0,0,0,0,0,0,0,0
1747,1660892848.861091129,gps,0,0,35.653315,139.792496,4.296000,0,0,0,0,0,0,0,0,0,0
1748,1660892849.074618999,gps,0,0,35.653315,139.792496,4.297000,0,0,0,0,0,0,0,0,0,0
1749,1660892849.274816292,gps,0,0,35.653315,139.792496,4.299000,0,0,0,0,0,0,0,0,0,0
1750,1660892849.468507845,gps,0,0,35.653315,139.792496,4.295000,0,0,0,0,0,0,0,0,0,0
1751,1660892849.671507692,gps,0,0,35.653315,139.792496,4.290000,0,0,0,0,0,0,0,0,0,0
1752,1660892849.866852334,gps,0,0,35.653315,139.792496,4.294000,0,0,0,0,0,0,0,0,0,0
1753,1660892850.076915081,gps,0,0,35.653315,139.792496,4.298000,0,0,0,0,0,0,0,0,0,0
1754,1660892850.275697792,gps,0,0,35.653315,139.792496,4.301000,0,0,0,0,0,0,0,0,0,0
1755,1660892850.470691136,gps,0,0,35.653315,139.792496,4.296000,0,0,0,0,0,0,0,0,0,0
1756,1660892850.663376272,gps,0,0,35.653315,139.792496,4.298000,0,0,0,0,0,0,0,0,0,0
1757,1660892850.868466589,gps,0,0,35.653315,139.792496,4.297000,0,0,0,0,0,0,0,0,0,0
1758,1660892851.077699458,gps,0,0,35.653315,139.792496,4.300000,0,0,0,0,0,0,0,0,0,0
1759,1660892851.278346175,gps,0,0,35.653315,139.792496,4.301000,0,0,0,0,0,0,0,0,0,0
1760,1660892851.470882304,gps,0,0,35.653315,139.792496,4.296000,0,0,0,0,0,0,0,0,0,0
1761,1660892851.669967641,gps,0,0,35.653315,139.792496,4.297000,0,0,0,0,0,0,0,0,0,0
1762,1660892851.870918577,gps,0,0,35.653315,139.792496,4.292000,0,0,0,0,0,0,0,0,0,0
1763,1660892852.075977991,gps,0,0,35.653315,139.792496,4.296000,0,0,0,0,0,0,0,0,0,0
1764,1660892852.275800627,gps,0,0,35.653315,139.792496,4.294000,0,0,0,0,0,0,0,0,0,0
1765,1660892852.461997574,gps,0,0,35.653315,139.792496,4.290000,0,0,0,0,0,0,0,0,0,0
1766,1660892852.667823316,gps,0,0,35.653315,139.792496,4.293000,0,0,0,0,0,0,0,0,0,0
1767,1660892852.865916563,gps,0,0,35.653315,139.792496,4.295000,0,0,0,0,0,0,0,0,0,0
1768,1660892853.074686025,gps,0,0,35.653315,139.792496,4.303000,0,0,0,0,0,0,0,0,0,0
1769,1660892853.273825297,gps,0,0,35.653315,139.792496,4.297000,0,0,0,0,0,0,0,0,0,0
1770,1660892853.467613793,gps,0,0,35.653315,139.792496,4.301000,0,0,0,0,0,0,0,0,0,0
1771,1660892853.667928753,gps,0,0,35.653315,139.792496,4.299000,0,0,0,0,0,0,0,0,0,0
1772,1660892853.867964014,gps,0,0,35.653315,139.792496,4.299000,0,0,0,0,0,0,0,0,0,0
1773,1660892854.071931419,gps,0,0,35.653315,139.792496,4.295000,0,0,0,0,0,0,0,0,0,0
1774,1660892854.267897190,gps,0,0,35.653315,139.792496,4.300000,0,0,0,0,0,0,0,0,0,0
1775,1660892854.468560647,gps,0,0,35.653315,139.792496,4.302000,0,0,0,0,0,0,0,0,0,0
1776,1660892854.667981564,gps,0,0,35.653315,139.792496,4.294000,0,0,0,0,0,0,0,0,0,0
1777,1660892854.867822097,gps,0,0,35.653315,139.792496,4.293000,0,0,0,0,0,0,0,0,0,0
1778,1660892855.073996837,gps,0,0,35.653316,139.792496,4.299000,0,0,0,0,0,0,0,0,0,0
1779,1660892855.274733025,gps,0,0,35.653316,139.792496,4.295000,0,0,0,0,0,0,0,0,0,0
1780,1660892855.469972367,gps,0,0,35.653316,139.792496,4.279000,0,0,0,0,0,0,0,0,0,0
1781,1660892855.670649459,gps,0,0,35.653316,139.792496,4.275000,0,0,0,0,0,0,0,0,0,0
1782,1660892855.868010187,gps,0,0,35.653316,139.792496,4.279000,0,0,0,0,0,0,0,0,0,0
1783,1660892856.067722323,gps,0,0,35.653317,139.792496,4.275000,0,0,0,0,0,0,0,0,0,0
1784,1660892856.275569139,gps,0,0,35.653317,139.792496,4.281000,0,0,0,0,0,0,0,0,0,0
1785,1660892856.468483874,gps,0,0,35.653317,139.792496,4.263000,0,0,0,0,0,0,0,0,0,0
1786,1660892856.673029650,gps,0,0,35.653317,139.792496,4.260000,0,0,0,0,0,0,0,0,0,0
1787,1660892856.868904520,gps,0,0,35.653317,139.792496,4.259000,0,0,0,0,0,0,0,0,0,0
1788,1660892857.074026331,gps,0,0,35.653318,139.792496,4.267000,0,0,0,0,0,0,0,0,0,0
1789,1660892857.277139223,gps,0,0,35.653319,139.792496,4.267000,0,0,0,0,0,0,0,0,0,0
1790,1660892857.469656261,gps,0,0,35.653320,139.792496,4.252000,0,0,0,0,0,0,0,0,0,0
1791,1660892857.668604782,gps,0,0,35.653321,139.792496,4.265000,0,0,0,0,0,0,0,0,0,0
1792,1660892857.862063076,gps,0,0,35.653322,139.792496,4.274000,0,0,0,0,0,0,0,0,0,0
1793,1660892858.075693684,gps,0,0,35.653323,139.792496,4.252000,0,0,0,0,0,0,0,0,0,0
1794,1660892858.276689131,gps,0,0,35.653324,139.792496,4.273000,0,0,0,0,0,0,0,0,0,0
1795,1660892858.470574645,gps,0,0,35.653325,139.792496,4.293000,0,0,0,0,0,0,0,0,0,0
1796,1660892858.667907037,gps,0,0,35.653326,139.792511,4.303000,0,0,0,0,0,0,0,0,0,0
1797,1660892858.866837726,gps,0,0,35.653327,139.792511,4.329000,0,0,0,0,0,0,0,0,0,0
1798,1660892859.074607028,gps,0,0,35.653327,139.792511,4.354000,0,0,0,0,0,0,0,0,0,0
1799,1660892859.270764498,gps,0,0,35.653329,139.792511,4.327000,0,0,0,0,0,0,0,0,0,0
1800,1660892859.469574782,gps,0,0,35.653329,139.792511,4.323000,0,0,0,0,0,0,0,0,0,0
1801,1660892859.664895062,gps,0,0,35.653330,139.792511,4.362000,0,0,0,0,0,0,0,0,0,0
1802,1660892859.870633690,gps,0,0,35.653331,139.792511,4.347000,0,0,0,0,0,0,0,0,0,0
1803,1660892860.074547979,gps,0,0,35.653333,139.792511,4.334000,0,0,0,0,0,0,0,0,0,0
1804,1660892860.278079980,gps,0,0,35.653334,139.792511,4.372000,0,0,0,0,0,0,0,0,0,0
1805,1660892860.468706375,gps,0,0,35.653334,139.792511,4.367000,0,0,0,0,0,0,0,0,0,0
1806,1660892860.667952403,gps,0,0,35.653335,139.792511,4.333000,0,0,0,0,0,0,0,0,0,0
1807,1660892860.866948922,gps,0,0,35.653336,139.792511,4.363000,0,0,0,0,0,0,0,0,0,0
1808,1660892861.072926699,gps,0,0,35.653337,139.792526,4.376000,0,0,0,0,0,0,0,0,0,0
1809,1660892861.274867286,gps,0,0,35.653338,139.792526,4.359000,0,0,0,0,0,0,0,0,0,0
1810,1660892861.462751393,gps,0,0,35.653339,139.792526,4.380000,0,0,0,0,0,0,0,0,0,0
1811,1660892861.668611609,gps,0,0,35.653340,139.792526,4.408000,0,0,0,0,0,0,0,0,0,0
1812,1660892861.865938817,gps,0,0,35.653341,139.792526,4.354000,0,0,0,0,0,0,0,0,0,0
1813,1660892862.076669820,gps,0,0,35.653342,139.792526,4.364000,0,0,0,0,0,0,0,0,0,0
1814,1660892862.275803380,gps,0,0,35.653343,139.792526,4.395000,0,0,0,0,0,0,0,0,0,0
1815,1660892862.468196867,gps,0,0,35.653344,139.792526,4.380000,0,0,0,0,0,0,0,0,0,0
1816,1660892862.669605443,gps,0,0,35.653345,139.792526,4.357000,0,0,0,0,0,0,0,0,0,0
1817,1660892862.867771736,gps,0,0,35.653346,139.792526,4.397000,0,0,0,0,0,0,0,0,0,0
1818,1660892863.076016792,gps,0,0,35.653347,139.792542,4.392000,0,0,0,0,0,0,0,0,0,0
1819,1660892863.270012758,gps,0,0,35.653348,139.792542,4.371000,0,0,0,0,0,0,0,0,0,0
1820,1660892863.469909062,gps,0,0,35.653349,139.792542,4.406000,0,0,0,0,0,0,0,0,0,0
1821,1660892863.671530166,gps,0,0,35.653350,139.792542,4.400000,0,0,0,0,0,0,0,0,0,0
1822,1660892863.869650622,gps,0,0,35.653351,139.792542,4.386000,0,0,0,0,0,0,0,0,0,0
1823,1660892864.076754015,gps,0,0,35.653352,139.792542,4.413000,0,0,0,0,0,0,0,0,0,0
1824,1660892864.277886596,gps,0,0,35.653353,139.792542,4.418000,0,0,0,0,0,0,0,0,0,0
1825,1660892864.469725190,gps,0,0,35.653354,139.792542,4.381000,0,0,0,0,0,0,0,0,0,0
1826,1660892864.669827252,gps,0,0,35.653355,139.792542,4.406000,0,0,0,0,0,0,0,0,0,0
1827,1660892864.868628827,gps,0,0,35.653356,139.792542,4.402000,0,0,0,0,0,0,0,0,0,0
1828,1660892865.068992390,gps,0,0,35.653357,139.792557,4.378000,0,0,0,0,0,0,0,0,0,0
1829,1660892865.273870301,gps,0,0,35.653358,139.792557,4.406000,0,0,0,0,0,0,0,0,0,0
1830,1660892865.469637672,gps,0,0,35.653358,139.792557,4.424000,0,0,0,0,0,0,0,0,0,0
1831,1660892865.671822366,gps,0,0,35.653359,139.792557,4.394000,0,0,0,0,0,0,0,0,0,0
1832,1660892865.868814816,gps,0,0,35.653360,139.792557,4.401000,0,0,0,0,0,0,0,0,0,0
1833,1660892866.075875734,gps,0,0,35.653361,139.792557,4.428000,0,0,0,0,0,0,0,0,0,0
1834,1660892866.276990674,gps,0,0,35.653362,139.792557,4.402000,0,0,0,0,0,0,0,0,0,0
1835,1660892866.469539324,gps,0,0,35.653364,139.792557,4.400000,0,0,0,0,0,0,0,0,0,0
1836,1660892866.668882858,gps,0,0,35.653365,139.792557,4.431000,0,0,0,0,0,0,0,0,0,0
1837,1660892866.863571882,gps,0,0,35.653366,139.792557,4.419000,0,0,0,0,0,0,0,0,0,0
1838,1660892867.076876842,gps,0,0,35.653366,139.792572,4.406000,0,0,0,0,0,0,0,0,0,0
1839,1660892867.275674196,gps,0,0,35.653367,139.792572,4.433000,0,0,0,0,0,0,0,0,0,0
1840,1660892867.470034223,gps,0,0,35.653368,139.792572,4.436000,0,0,0,0,0,0,0,0,0,0
1841,1660892867.669456731,gps,0,0,35.653369,139.792572,4.416000,0,0,0,0,0,0,0,0,0,0
1842,1660892867.868539339,gps,0,0,35.653370,139.792572,4.446000,0,0,0,0,0,0,0,0,0,0
1843,1660892868.075922885,gps,0,0,35.653371,139.792572,4.464000,0,0,0,0,0,0,0,0,0,0
1844,1660892868.269711464,gps,0,0,35.653372,139.792572,4.423000,0,0,0,0,0,0,0,0,0,0
1845,1660892868.463994830,gps,0,0,35.653372,139.792572,4.435000,0,0,0,0,0,0,0,0,0,0
1846,1660892868.659754302,gps,0,0,35.653373,139.792572,4.464000,0,0,0,0,0,0,0,0,0,0
1847,1660892868.863717207,gps,0,0,35.653374,139.792572,4.436000,0,0,0,0,0,0,0,0,0,0
1848,1660892869.068801905,gps,0,0,35.653376,139.792572,4.452000,0,0,0,0,0,0,0,0,0,0
1849,1660892869.267887239,gps,0,0,35.653377,139.792587,4.480000,0,0,0,0,0,0,0,0,0,0
1850,1660892869.467582190,gps,0,0,35.653377,139.792587,4.452000,0,0,0,0,0,0,0,0,0,0
1851,1660892869.666005264,gps,0,0,35.653378,139.792587,4.454000,0,0,0,0,0,0,0,0,0,0
1852,1660892869.866998142,gps,0,0,35.653378,139.792587,4.487000,0,0,0,0,0,0,0,0,0,0
1853,1660892870.074956841,gps,0,0,35.653379,139.792587,4.471000,0,0,0,0,0,0,0,0,0,0
1854,1660892870.274456967,gps,0,0,35.653381,139.792587,4.449000,0,0,0,0,0,0,0,0,0,0
1855,1660892870.461771975,gps,0,0,35.653382,139.792587,4.480000,0,0,0,0,0,0,0,0,0,0
1856,1660892870.667906290,gps,0,0,35.653383,139.792587,4.498000,0,0,0,0,0,0,0,0,0,0
1857,1660892870.866025024,gps,0,0,35.653383,139.792587,4.457000,0,0,0,0,0,0,0,0,0,0
1858,1660892871.074754192,gps,0,0,35.653384,139.792587,4.495000,0,0,0,0,0,0,0,0,0,0
1859,1660892871.271689888,gps,0,0,35.653385,139.792603,4.504000,0,0,0,0,0,0,0,0,0,0
1860,1660892871.466776742,gps,0,0,35.653386,139.792603,4.448000,0,0,0,0,0,0,0,0,0,0
1861,1660892871.668880634,gps,0,0,35.653388,139.792603,4.486000,0,0,0,0,0,0,0,0,0,0
1862,1660892871.863613364,gps,0,0,35.653388,139.792603,4.499000,0,0,0,0,0,0,0,0,0,0
1863,1660892872.070743652,gps,0,0,35.653389,139.792603,4.481000,0,0,0,0,0,0,0,0,0,0
1864,1660892872.268728777,gps,0,0,35.653390,139.792603,4.479000,0,0,0,0,0,0,0,0,0,0
1865,1660892872.467047937,gps,0,0,35.653391,139.792603,4.489000,0,0,0,0,0,0,0,0,0,0
1866,1660892872.666641028,gps,0,0,35.653392,139.792603,4.460000,0,0,0,0,0,0,0,0,0,0
1867,1660892872.867849877,gps,0,0,35.653393,139.792603,4.481000,0,0,0,0,0,0,0,0,0,0
1868,1660892873.074664726,gps,0,0,35.653394,139.792603,4.509000,0,0,0,0,0,0,0,0,0,0
1869,1660892873.273694281,gps,0,0,35.653395,139.792603,4.486000,0,0,0,0,0,0,0,0,0,0
1870,1660892873.468439302,gps,0,0,35.653396,139.792618,4.506000,0,0,0,0,0,0,0,0,0,0
1871,1660892873.668542823,gps,0,0,35.653397,139.792618,4.521000,0,0,0,0,0,0,0,0,0,0
1872,1660892873.865564529,gps,0,0,35.653398,139.792618,4.487000,0,0,0,0,0,0,0,0,0,0
1873,1660892874.065993668,gps,0,0,35.653399,139.792618,4.481000,0,0,0,0,0,0,0,0,0,0
1874,1660892874.266022860,gps,0,0,35.653400,139.792618,4.510000,0,0,0,0,0,0,0,0,0,0
1875,1660892874.465000724,gps,0,0,35.653401,139.792618,4.501000,0,0,0,0,0,0,0,0,0,0
1876,1660892874.666703404,gps,0,0,35.653402,139.792618,4.476000,0,0,0,0,0,0,0,0,0,0
1877,1660892874.863566760,gps,0,0,35.653403,139.792618,4.519000,0,0,0,0,0,0,0,0,0,0
1878,1660892875.069431438,gps,0,0,35.653404,139.792618,4.504000,0,0,0,0,0,0,0,0,0,0
1879,1660892875.272737171,gps,0,0,35.653405,139.792618,4.472000,0,0,0,0,0,0,0,0,0,0
1880,1660892875.465848303,gps,0,0,35.653406,139.792618,4.497000,0,0,0,0,0,0,0,0,0,0
1881,1660892875.665853135,gps,0,0,35.653407,139.792633,4.498000,0,0,0,0,0,0,0,0,0,0
1882,1660892875.862734757,gps,0,0,35.653408,139.792633,4.463000,0,0,0,0,0,0,0,0,0,0
1883,1660892876.074488691,gps,0,0,35.653409,139.792633,4.481000,0,0,0,0,0,0,0,0,0,0
1884,1660892876.274110864,gps,0,0,35.653409,139.792633,4.506000,0,0,0,0,0,0,0,0,0,0
1885,1660892876.468300113,gps,0,0,35.653411,139.792633,4.473000,0,0,0,0,0,0,0,0,0,0
1886,1660892876.667769370,gps,0,0,35.653412,139.792633,4.478000,0,0,0,0,0,0,0,0,0,0
1887,1660892876.865700395,gps,0,0,35.653413,139.792633,4.508000,0,0,0,0,0,0,0,0,0,0
1888,1660892877.072874459,gps,0,0,35.653414,139.792633,4.500000,0,0,0,0,0,0,0,0,0,0
1889,1660892877.268864110,gps,0,0,35.653415,139.792633,4.490000,0,0,0,0,0,0,0,0,0,0
1890,1660892877.466995613,gps,0,0,35.653415,139.792648,4.530000,0,0,0,0,0,0,0,0,0,0
1891,1660892877.661333633,gps,0,0,35.653416,139.792648,4.517000,0,0,0,0,0,0,0,0,0,0
1892,1660892877.865601439,gps,0,0,35.653418,139.792648,4.502000,0,0,0,0,0,0,0,0,0,0
1893,1660892878.069878318,gps,0,0,35.653419,139.792648,4.531000,0,0,0,0,0,0,0,0,0,0
1894,1660892878.273934218,gps,0,0,35.653419,139.792648,4.547000,0,0,0,0,0,0,0,0,0,0
1895,1660892878.465865945,gps,0,0,35.653420,139.792648,4.504000,0,0,0,0,0,0,0,0,0,0
1896,1660892878.664949744,gps,0,0,35.653421,139.792648,4.510000,0,0,0,0,0,0,0,0,0,0
1897,1660892878.865579452,gps,0,0,35.653422,139.792648,4.526000,0,0,0,0,0,0,0,0,0,0
1898,1660892879.071612260,gps,0,0,35.653423,139.792648,4.496000,0,0,0,0,0,0,0,0,0,0
1899,1660892879.272859130,gps,0,0,35.653424,139.792648,4.510000,0,0,0,0,0,0,0,0,0,0
1900,1660892879.462027200,gps,0,0,35.653425,139.792664,4.550000,0,0,0,0,0,0,0,0,0,0
1901,1660892879.667897279,gps,0,0,35.653426,139.792664,4.516000,0,0,0,0,0,0,0,0,0,0
1902,1660892879.867979973,gps,0,0,35.653427,139.792664,4.535000,0,0,0,0,0,0,0,0,0,0
1903,1660892880.078344534,gps,0,0,35.653427,139.792664,4.556000,0,0,0,0,0,0,0,0,0,0
1904,1660892880.273661781,gps,0,0,35.653429,139.792664,4.517000,0,0,0,0,0,0,0,0,0,0
1905,1660892880.465842722,gps,0,0,35.653430,139.792664,4.523000,0,0,0,0,0,0,0,0,0,0
1906,1660892880.666088746,gps,0,0,35.653431,139.792664,4.554000,0,0,0,0,0,0,0,0,0,0
1907,1660892880.863990334,gps,0,0,35.653432,139.792664,4.539000,0,0,0,0,0,0,0,0,0,0
1908,1660892881.068991845,gps,0,0,35.653433,139.792664,4.534000,0,0,0,0,0,0,0,0,0,0
1909,1660892881.262075827,gps,0,0,35.653434,139.792664,4.561000,0,0,0,0,0,0,0,0,0,0
1910,1660892881.468129829,gps,0,0,35.653435,139.792679,4.556000,0,0,0,0,0,0,0,0,0,0
1911,1660892881.666991049,gps,0,0,35.653436,139.792679,4.543000,0,0,0,0,0,0,0,0,0,0
1912,1660892881.867121292,gps,0,0,35.653437,139.792679,4.562000,0,0,0,0,0,0,0,0,0,0
1913,1660892882.072013315,gps,0,0,35.653438,139.792679,4.557000,0,0,0,0,0,0,0,0,0,0
1914,1660892882.273441713,gps,0,0,35.653439,139.792679,4.517000,0,0,0,0,0,0,0,0,0,0
1915,1660892882.465966180,gps,0,0,35.653440,139.792679,4.540000,0,0,0,0,0,0,0,0,0,0
1916,1660892882.667077051,gps,0,0,35.653441,139.792679,4.568000,0,0,0,0,0,0,0,0,0,0
1917,1660892882.895906714,gps,0,0,35.653442,139.792679,4.550000,0,0,0,0,0,0,0,0,0,0
1918,1660892883.100898446,gps,0,0,35.653444,139.792679,4.590000,0,0,0,0,0,0,0,0,0,0
1919,1660892883.276978611,gps,0,0,35.653445,139.792679,4.591000,0,0,0,0,0,0,0,0,0,0
1920,1660892883.468994640,gps,0,0,35.653446,139.792694,4.575000,0,0,0,0,0,0,0,0,0,0
1921,1660892883.671074341,gps,0,0,35.653447,139.792694,4.561000,0,0,0,0,0,0,0,0,0,0
1922,1660892883.868011975,gps,0,0,35.653447,139.792694,4.596000,0,0,0,0,0,0,0,0,0,0
1923,1660892884.074103283,gps,0,0,35.653449,139.792694,4.583000,0,0,0,0,0,0,0,0,0,0
1924,1660892884.275737334,gps,0,0,35.653450,139.792694,4.553000,0,0,0,0,0,0,0,0,0,0
1925,1660892884.469048721,gps,0,0,35.653451,139.792694,4.603000,0,0,0,0,0,0,0,0,0,0
1926,1660892884.667926959,gps,0,0,35.653452,139.792694,4.596000,0,0,0,0,0,0,0,0,0,0
1927,1660892884.861752584,gps,0,0,35.653453,139.792694,4.553000,0,0,0,0,0,0,0,0,0,0
1928,1660892885.076781994,gps,0,0,35.653453,139.792694,4.596000,0,0,0,0,0,0,0,0,0,0
1929,1660892885.275859336,gps,0,0,35.653454,139.792709,4.606000,0,0,0,0,0,0,0,0,0,0
1930,1660892885.471591938,gps,0,0,35.653456,139.792709,4.569000,0,0,0,0,0,0,0,0,0,0
1931,1660892885.669759977,gps,0,0,35.653457,139.792709,4.594000,0,0,0,0,0,0,0,0,0,0
1932,1660892885.867848841,gps,0,0,35.653458,139.792709,4.605000,0,0,0,0,0,0,0,0,0,0
1933,1660892886.077761509,gps,0,0,35.653459,139.792709,4.583000,0,0,0,0,0,0,0,0,0,0
1934,1660892886.276515768,gps,0,0,35.653460,139.792709,4.611000,0,0,0,0,0,0,0,0,0,0
1935,1660892886.470840553,gps,0,0,35.653460,139.792709,4.630000,0,0,0,0,0,0,0,0,0,0
1936,1660892886.664495428,gps,0,0,35.653462,139.792709,4.588000,0,0,0,0,0,0,0,0,0,0
1937,1660892886.870021954,gps,0,0,35.653463,139.792709,4.577000,0,0,0,0,0,0,0,0,0,0
1938,1660892887.077724652,gps,0,0,35.653464,139.792725,4.627000,0,0,0,0,0,0,0,0,0,0
1939,1660892887.277925335,gps,0,0,35.653465,139.792725,4.609000,0,0,0,0,0,0,0,0,0,0
1940,1660892887.470479440,gps,0,0,35.653466,139.792725,4.598000,0,0,0,0,0,0,0,0,0,0
1941,1660892887.669126525,gps,0,0,35.653467,139.792725,4.608000,0,0,0,0,0,0,0,0,0,0
1942,1660892887.869835488,gps,0,0,35.653468,139.792725,4.601000,0,0,0,0,0,0,0,0,0,0
1943,1660892888.076071353,gps,0,0,35.653469,139.792725,4.563000,0,0,0,0,0,0,0,0,0,0
1944,1660892888.277742478,gps,0,0,35.653470,139.792725,4.631000,0,0,0,0,0,0,0,0,0,0
1945,1660892888.464772649,gps,0,0,35.653471,139.792725,4.655000,0,0,0,0,0,0,0,0,0,0
1946,1660892888.669840849,gps,0,0,35.653472,139.792725,4.590000,0,0,0,0,0,0,0,0,0,0
1947,1660892888.867825809,gps,0,0,35.653473,139.792725,4.610000,0,0,0,0,0,0,0,0,0,0
1948,1660892889.075823905,gps,0,0,35.653474,139.792740,4.623000,0,0,0,0,0,0,0,0,0,0
1949,1660892889.274876242,gps,0,0,35.653475,139.792740,4.607000,0,0,0,0,0,0,0,0,0,0
1950,1660892889.467966925,gps,0,0,35.653476,139.792740,4.582000,0,0,0,0,0,0,0,0,0,0
1951,1660892889.668823538,gps,0,0,35.653477,139.792740,4.620000,0,0,0,0,0,0,0,0,0,0
1952,1660892889.867050662,gps,0,0,35.653478,139.792740,4.629000,0,0,0,0,0,0,0,0,0,0
1953,1660892890.071906886,gps,0,0,35.653479,139.792740,4.591000,0,0,0,0,0,0,0,0,0,0
1954,1660892890.268658329,gps,0,0,35.653479,139.792740,4.631000,0,0,0,0,0,0,0,0,0,0
1955,1660892890.467727950,gps,0,0,35.653480,139.792740,4.639000,0,0,0,0,0,0,0,0,0,0
1956,1660892890.666895933,gps,0,0,35.653482,139.792740,4.594000,0,0,0,0,0,0,0,0,0,0
1957,1660892890.867103966,gps,0,0,35.653483,139.792740,4.633000,0,0,0,0,0,0,0,0,0,0
1958,1660892891.073062869,gps,0,0,35.653484,139.792755,4.652000,0,0,0,0,0,0,0,0,0,0
1959,1660892891.273852378,gps,0,0,35.653485,139.792755,4.618000,0,0,0,0,0,0,0,0,0,0
1960,1660892891.468830491,gps,0,0,35.653485,139.792755,4.652000,0,0,0,0,0,0,0,0,0,0
1961,1660892891.668883309,gps,0,0,35.653486,139.792755,4.652000,0,0,0,0,0,0,0,0,0,0
1962,1660892891.866912949,gps,0,0,35.653488,139.792755,4.612000,0,0,0,0,0,0,0,0,0,0
1963,1660892892.070807118,gps,0,0,35.653489,139.792755,4.630000,0,0,0,0,0,0,0,0,0,0
1964,1660892892.276593569,gps,0,0,35.653490,139.792755,4.643000,0,0,0,0,0,0,0,0,0,0
1965,1660892892.467795928,gps,0,0,35.653491,139.792755,4.601000,0,0,0,0,0,0,0,0,0,0
1966,1660892892.668965500,gps,0,0,35.653491,139.792755,4.615000,0,0,0,0,0,0,0,0,0,0
1967,1660892892.866922123,gps,0,0,35.653492,139.792770,4.647000,0,0,0,0,0,0,0,0,0,0
1968,1660892893.072074334,gps,0,0,35.653494,139.792770,4.647000,0,0,0,0,0,0,0,0,0,0
1969,1660892893.275738195,gps,0,0,35.653495,139.792770,4.630000,0,0,0,0,0,0,0,0,0,0
1970,1660892893.468052424,gps,0,0,35.653496,139.792770,4.666000,0,0,0,0,0,0,0,0,0,0
1971,1660892893.668042104,gps,0,0,35.653497,139.792770,4.639000,0,0,0,0,0,0,0,0,0,0
1972,1660892893.860893148,gps,0,0,35.653498,139.792770,4.636000,0,0,0,0,0,0,0,0,0,0
1973,1660892894.071777588,gps,0,0,35.653498,139.792770,4.675000,0,0,0,0,0,0,0,0,0,0
1974,1660892894.271953286,gps,0,0,35.653499,139.792770,4.670000,0,0,0,0,0,0,0,0,0,0
1975,1660892894.468867846,gps,0,0,35.653500,139.792770,4.653000,0,0,0,0,0,0,0,0,0,0
1976,1660892894.666711981,gps,0,0,35.653502,139.792770,4.661000,0,0,0,0,0,0,0,0,0,0
1977,1660892894.864667855,gps,0,0,35.653502,139.792786,4.676000,0,0,0,0,0,0,0,0,0,0
1978,1660892895.075487738,gps,0,0,35.653503,139.792786,4.635000,0,0,0,0,0,0,0,0,0,0
1979,1660892895.268942264,gps,0,0,35.653504,139.792786,4.664000,0,0,0,0,0,0,0,0,0,0
1980,1660892895.468867369,gps,0,0,35.653505,139.792786,4.685000,0,0,0,0,0,0,0,0,0,0
1981,1660892895.665526505,gps,0,0,35.653506,139.792786,4.646000,0,0,0,0,0,0,0,0,0,0
1982,1660892895.869515008,gps,0,0,35.653508,139.792786,4.630000,0,0,0,0,0,0,0,0,0,0
1983,1660892896.075823511,gps,0,0,35.653509,139.792786,4.667000,0,0,0,0,0,0,0,0,0,0
1984,1660892896.277827709,gps,0,0,35.653509,139.792786,4.669000,0,0,0,0,0,0,0,0,0,0
1985,1660892896.470892712,gps,0,0,35.653510,139.792786,4.636000,0,0,0,0,0,0,0,0,0,0
1986,1660892896.669720510,gps,0,0,35.653511,139.792801,4.716000,0,0,0,0,0,0,0,0,0,0
1987,1660892896.869543346,gps,0,0,35.653512,139.792801,4.679000,0,0,0,0,0,0,0,0,0,0
1988,1660892897.075870217,gps,0,0,35.653513,139.792801,4.625000,0,0,0,0,0,0,0,0,0,0
1989,1660892897.276854090,gps,0,0,35.653515,139.792801,4.657000,0,0,0,0,0,0,0,0,0,0
1990,1660892897.463767588,gps,0,0,35.653516,139.792801,4.687000,0,0,0,0,0,0,0,0,0,0
1991,1660892897.669735242,gps,0,0,35.653517,139.792801,4.644000,0,0,0,0,0,0,0,0,0,0
1992,1660892897.868675301,gps,0,0,35.653517,139.792801,4.665000,0,0,0,0,0,0,0,0,0,0
1993,1660892898.078909135,gps,0,0,35.653518,139.792801,4.667000,0,0,0,0,0,0,0,0,0,0
1994,1660892898.275884798,gps,0,0,35.653519,139.792801,4.640000,0,0,0,0,0,0,0,0,0,0
1995,1660892898.469051364,gps,0,0,35.653521,139.792801,4.625000,0,0,0,0,0,0,0,0,0,0
1996,1660892898.670785986,gps,0,0,35.653522,139.792816,4.670000,0,0,0,0,0,0,0,0,0,0
1997,1660892898.868924860,gps,0,0,35.653523,139.792816,4.666000,0,0,0,0,0,0,0,0,0,0
1998,1660892899.074041677,gps,0,0,35.653524,139.792816,4.674000,0,0,0,0,0,0,0,0,0,0
1999,1660892899.267814369,gps,0,0,35.653525,139.792816,4.699000,0,0,0,0,0,0,0,0,0,0
2000,1660892899.466647158,gps,0,0,35.653526,139.792816,4.712000,0,0,0,0,0,0,0,0,0,0
2001,1660892899.663905383,gps,0,0,35.653527,139.792816,4.671000,0,0,0,0,0,0,0,0,0,0
2002,1660892899.865176257,gps,0,0,35.653528,139.792816,4.710000,0,0,0,0,0,0,0,0,0,0
2003,1660892900.069765288,gps,0,0,35.653529,139.792816,4.700000,0,0,0,0,0,0,0,0,0,0
2004,1660892900.272866642,gps,0,0,35.653530,139.792816,4.680000,0,0,0,0,0,0,0,0,0,0
2005,1660892900.466724860,gps,0,0,35.653531,139.792831,4.709000,0,0,0,0,0,0,0,0,0,0
2006,1660892900.665930964,gps,0,0,35.653532,139.792831,4.720000,0,0,0,0,0,0,0,0,0,0
2007,1660892900.862750507,gps,0,0,35.653533,139.792831,4.676000,0,0,0,0,0,0,0,0,0,0
2008,1660892901.063828184,gps,0,0,35.653535,139.792831,4.691000,0,0,0,0,0,0,0,0,0,0
2009,1660892901.265814758,gps,0,0,35.653536,139.792831,4.735000,0,0,0,0,0,0,0,0,0,0
2010,1660892901.464836854,gps,0,0,35.653536,139.792831,4.705000,0,0,0,0,0,0,0,0,0,0
2011,1660892901.665673468,gps,0,0,35.653537,139.792831,4.697000,0,0,0,0,0,0,0,0,0,0
2012,1660892901.867636833,gps,0,0,35.653538,139.792831,4.723000,0,0,0,0,0,0,0,0,0,0
2013,1660892902.069822157,gps,0,0,35.653539,139.792831,4.711000,0,0,0,0,0,0,0,0,0,0
2014,1660892902.269960988,gps,0,0,35.653541,139.792831,4.671000,0,0,0,0,0,0,0,0,0,0
2015,1660892902.466948901,gps,0,0,35.653542,139.792847,4.724000,0,0,0,0,0,0,0,0,0,0
2016,1660892902.665993029,gps,0,0,35.653543,139.792847,4.696000,0,0,0,0,0,0,0,0,0,0
2017,1660892902.859845217,gps,0,0,35.653544,139.792847,4.674000,0,0,0,0,0,0,0,0,0,0
2018,1660892903.071962527,gps,0,0,35.653545,139.792847,4.710000,0,0,0,0,0,0,0,0,0,0
2019,1660892903.275014500,gps,0,0,35.653545,139.792847,4.715000,0,0,0,0,0,0,0,0,0,0
2020,1660892903.468880137,gps,0,0,35.653547,139.792847,4.669000,0,0,0,0,0,0,0,0,0,0
2021,1660892903.668859989,gps,0,0,35.653548,139.792847,4.677000,0,0,0,0,0,0,0,0,0,0
2022,1660892903.866686705,gps,0,0,35.653549,139.792847,4.696000,0,0,0,0,0,0,0,0,0,0
2023,1660892904.074805613,gps,0,0,35.653550,139.792847,4.685000,0,0,0,0,0,0,0,0,0,0
2024,1660892904.271974947,gps,0,0,35.653551,139.792862,4.702000,0,0,0,0,0,0,0,0,0,0
2025,1660892904.466097124,gps,0,0,35.653552,139.792862,4.743000,0,0,0,0,0,0,0,0,0,0
2026,1660892904.660623935,gps,0,0,35.653553,139.792862,4.716000,0,0,0,0,0,0,0,0,0,0
2027,1660892904.865047090,gps,0,0,35.653554,139.792862,4.712000,0,0,0,0,0,0,0,0,0,0
2028,1660892905.070730563,gps,0,0,35.653555,139.792862,4.748000,0,0,0,0,0,0,0,0,0,0
2029,1660892905.274449920,gps,0,0,35.653556,139.792862,4.695000,0,0,0,0,0,0,0,0,0,0
2030,1660892905.464935041,gps,0,0,35.653557,139.792862,4.695000,0,0,0,0,0,0,0,0,0,0
2031,1660892905.663633459,gps,0,0,35.653557,139.792862,4.734000,0,0,0,0,0,0,0,0,0,0
2032,1660892905.896000872,gps,0,0,35.653558,139.792862,4.647000,0,0,0,0,0,0,0,0,0,0
2033,1660892906.069523873,gps,0,0,35.653560,139.792877,4.603000,0,0,0,0,0,0,0,0,0,0
2034,1660892906.271771981,gps,0,0,35.653561,139.792877,4.641000,0,0,0,0,0,0,0,0,0,0
2035,1660892906.459803894,gps,0,0,35.653562,139.792877,4.643000,0,0,0,0,0,0,0,0,0,0
2036,1660892906.664785003,gps,0,0,35.653563,139.792877,4.627000,0,0,0,0,0,0,0,0,0,0
2037,1660892906.861844598,gps,0,0,35.653564,139.792877,4.673000,0,0,0,0,0,0,0,0,0,0
2038,1660892907.069614149,gps,0,0,35.653565,139.792877,4.702000,0,0,0,0,0,0,0,0,0,0
2039,1660892907.265946398,gps,0,0,35.653566,139.792877,4.636000,0,0,0,0,0,0,0,0,0,0
2040,1660892907.463911104,gps,0,0,35.653568,139.792877,4.649000,0,0,0,0,0,0,0,0,0,0
2041,1660892907.666862175,gps,0,0,35.653569,139.792877,4.669000,0,0,0,0,0,0,0,0,0,0
2042,1660892907.864583597,gps,0,0,35.653570,139.792892,4.642000,0,0,0,0,0,0,0,0,0,0
2043,1660892908.069634365,gps,0,0,35.653571,139.792892,4.673000,0,0,0,0,0,0,0,0,0,0
2044,1660892908.267537196,gps,0,0,35.653571,139.792892,4.669000,0,0,0,0,0,0,0,0,0,0
2045,1660892908.467610337,gps,0,0,35.653573,139.792892,4.674000,0,0,0,0,0,0,0,0,0,0
2046,1660892908.666013254,gps,0,0,35.653574,139.792892,4.686000,0,0,0,0,0,0,0,0,0,0
2047,1660892908.868743924,gps,0,0,35.653575,139.792892,4.706000,0,0,0,0,0,0,0,0,0,0
2048,1660892909.073937902,gps,0,0,35.653576,139.792892,4.645000,0,0,0,0,0,0,0,0,0,0
2049,1660892909.273756735,gps,0,0,35.653577,139.792892,4.647000,0,0,0,0,0,0,0,0,0,0
2050,1660892909.467742577,gps,0,0,35.653578,139.792892,4.697000,0,0,0,0,0,0,0,0,0,0
2051,1660892909.666876596,gps,0,0,35.653579,139.792908,4.628000,0,0,0,0,0,0,0,0,0,0
2052,1660892909.862973184,gps,0,0,35.653581,139.792908,4.605000,0,0,0,0,0,0,0,0,0,0
2053,1660892910.063986986,gps,0,0,35.653582,139.792908,4.672000,0,0,0,0,0,0,0,0,0,0
2054,1660892910.265578783,gps,0,0,35.653583,139.792908,4.650000,0,0,0,0,0,0,0,0,0,0
2055,1660892910.464857848,gps,0,0,35.653584,139.792908,4.610000,0,0,0,0,0,0,0,0,0,0
2056,1660892910.664957221,gps,0,0,35.653584,139.792908,4.689000,0,0,0,0,0,0,0,0,0,0
2057,1660892910.863689704,gps,0,0,35.653585,139.792908,4.666000,0,0,0,0,0,0,0,0,0,0
2058,1660892911.068991538,gps,0,0,35.653587,139.792908,4.627000,0,0,0,0,0,0,0,0,0,0
2059,1660892911.267549625,gps,0,0,35.653589,139.792923,4.664000,0,0,0,0,0,0,0,0,0,0
2060,1660892911.465652463,gps,0,0,35.653589,139.792923,4.650000,0,0,0,0,0,0,0,0,0,0
2061,1660892911.664551296,gps,0,0,35.653591,139.792923,4.636000,0,0,0,0,0,0,0,0,0,0
2062,1660892911.859004887,gps,0,0,35.653591,139.792923,4.664000,0,0,0,0,0,0,0,0,0,0
2063,1660892912.073634125,gps,0,0,35.653592,139.792923,4.683000,0,0,0,0,0,0,0,0,0,0
2064,1660892912.269507779,gps,0,0,35.653594,139.792923,4.637000,0,0,0,0,0,0,0,0,0,0
2065,1660892912.467005082,gps,0,0,35.653595,139.792923,4.660000,0,0,0,0,0,0,0,0,0,0
2066,1660892912.665942551,gps,0,0,35.653596,139.792923,4.684000,0,0,0,0,0,0,0,0,0,0
2067,1660892912.863888307,gps,0,0,35.653597,139.792923,4.643000,0,0,0,0,0,0,0,0,0,0
2068,1660892913.070794785,gps,0,0,35.653598,139.792938,4.637000,0,0,0,0,0,0,0,0,0,0
2069,1660892913.265582997,gps,0,0,35.653599,139.792938,4.678000,0,0,0,0,0,0,0,0,0,0
2070,1660892913.465541871,gps,0,0,35.653601,139.792938,4.652000,0,0,0,0,0,0,0,0,0,0
2071,1660892913.661760282,gps,0,0,35.653602,139.792938,4.647000,0,0,0,0,0,0,0,0,0,0
2072,1660892913.865815810,gps,0,0,35.653603,139.792938,4.672000,0,0,0,0,0,0,0,0,0,0
2073,1660892914.069925455,gps,0,0,35.653604,139.792938,4.622000,0,0,0,0,0,0,0,0,0,0
2074,1660892914.268529274,gps,0,0,35.653605,139.792938,4.647000,0,0,0,0,0,0,0,0,0,0
2075,1660892914.468506099,gps,0,0,35.653606,139.792938,4.700000,0,0,0,0,0,0,0,0,0,0
2076,1660892914.667760899,gps,0,0,35.653607,139.792953,4.677000,0,0,0,0,0,0,0,0,0,0
2077,1660892914.868814460,gps,0,0,35.653609,139.792953,4.700000,0,0,0,0,0,0,0,0,0,0
2078,1660892915.074934786,gps,0,0,35.653610,139.792953,4.748000,0,0,0,0,0,0,0,0,0,0
2079,1660892915.301792565,gps,0,0,35.653610,139.792953,4.720000,0,0,0,0,0,0,0,0,0,0
2080,1660892915.460858159,gps,0,0,35.653612,139.792953,4.726000,0,0,0,0,0,0,0,0,0,0
2081,1660892915.667701953,gps,0,0,35.653612,139.792953,4.763000,0,0,0,0,0,0,0,0,0,0
2082,1660892915.864612265,gps,0,0,35.653614,139.792953,4.729000,0,0,0,0,0,0,0,0,0,0
2083,1660892916.073926494,gps,-1,0,35.653614,139.792953,3.128000,0,0,0,0,0,0,0,0,0,0
2084,1660892916.264719842,gps,-1,0,35.653616,139.792969,2.721000,0,0,0,0,0,0,0,0,0,0
2085,1660892916.463994604,gps,-1,0,35.653617,139.792969,2.544000,0,0,0,0,0,0,0,0,0,0
2086,1660892916.665459801,gps,-1,0,35.653619,139.792969,2.450000,0,0,0,0,0,0,0,0,0,0
2087,1660892916.863666317,gps,-1,0,35.653620,139.792969,2.410000,0,0,0,0,0,0,0,0,0,0
2088,1660892917.067808989,gps,-1,0,35.653622,139.792969,2.343000,0,0,0,0,0,0,0,0,0,0
2089,1660892917.259027270,gps,-1,0,35.653624,139.792969,2.333000,0,0,0,0,0,0,0,0,0,0
2090,1660892917.465469018,gps,-1,0,35.653625,139.792969,2.335000,0,0,0,0,0,0,0,0,0,0
2091,1660892917.663975512,gps,-1,0,35.653626,139.792984,2.303000,0,0,0,0,0,0,0,0,0,0
2092,1660892917.862791242,gps,-1,0,35.653627,139.792984,2.313000,0,0,0,0,0,0,0,0,0,0
2093,1660892918.067830035,gps,-1,0,35.653629,139.792984,2.327000,0,0,0,0,0,0,0,0,0,0
2094,1660892918.263628808,gps,-1,0,35.653630,139.792984,2.290000,0,0,0,0,0,0,0,0,0,0
2095,1660892918.464751382,gps,-1,0,35.653632,139.792984,2.305000,0,0,0,0,0,0,0,0,0,0
2096,1660892918.663718415,gps,-1,0,35.653633,139.792984,2.350000,0,0,0,0,0,0,0,0,0,0
2097,1660892918.860775048,gps,-1,0,35.653634,139.792984,2.327000,0,0,0,0,0,0,0,0,0,0
2098,1660892919.062517435,gps,-1,0,35.653636,139.792984,2.332000,0,0,0,0,0,0,0,0,0,0
2099,1660892919.262730154,gps,-1,0,35.653637,139.792984,2.375000,0,0,0,0,0,0,0,0,0,0
2100,1660892919.462690738,gps,-1,0,35.653638,139.792999,2.357000,0,0,0,0,0,0,0,0,0,0
2101,1660892919.658646137,gps,-1,0,35.653639,139.792999,2.359000,0,0,0,0,0,0,0,0,0,0
2102,1660892919.857043153,gps,-1,0,35.653640,139.792999,2.404000,0,0,0,0,0,0,0,0,0,0
2103,1660892920.062642839,gps,-1,0,35.653642,139.792999,2.405000,0,0,0,0,0,0,0,0,0,0
2104,1660892920.258445545,gps,-1,0,35.653643,139.792999,2.391000,0,0,0,0,0,0,0,0,0,0
2105,1660892920.458559825,gps,-1,0,35.653644,139.792999,2.446000,0,0,0,0,0,0,0,0,0,0
2106,1660892920.657994273,gps,-1,0,35.653645,139.792999,2.438000,0,0,0,0,0,0,0,0,0,0
2107,1660892920.852757078,gps,-1,0,35.653646,139.792999,2.419000,0,0,0,0,0,0,0,0,0,0
2108,1660892921.065629423,gps,-1,0,35.653647,139.792999,2.454000,0,0,0,0,0,0,0,0,0,0
2109,1660892921.255976724,gps,-1,0,35.653648,139.793015,2.490000,0,0,0,0,0,0,0,0,0,0
2110,1660892921.459790813,gps,-1,0,35.653649,139.793015,2.445000,0,0,0,0,0,0,0,0,0,0
2111,1660892921.661853744,gps,-1,0,35.653650,139.793015,2.482000,0,0,0,0,0,0,0,0,0,0
2112,1660892921.858420137,gps,-1,0,35.653651,139.793015,2.524000,0,0,0,0,0,0,0,0,0,0
2113,1660892922.063906536,gps,-1,0,35.653652,139.793015,2.474000,0,0,0,0,0,0,0,0,0,0
2114,1660892922.260915495,gps,-1,0,35.653654,139.793015,2.499000,0,0,0,0,0,0,0,0,0,0
2115,1660892922.459645240,gps,-1,0,35.653655,139.793015,2.559000,0,0,0,0,0,0,0,0,0,0
2116,1660892922.653963881,gps,-1,0,35.653656,139.793015,2.519000,0,0,0,0,0,0,0,0,0,0
2117,1660892922.858957121,gps,-1,0,35.653657,139.793030,2.559000,0,0,0,0,0,0,0,0,0,0
2118,1660892923.067886588,gps,-1,0,35.653658,139.793030,2.610000,0,0,0,0,0,0,0,0,0,0
2119,1660892923.259975209,gps,-1,0,35.653659,139.793030,2.640000,0,0,0,0,0,0,0,0,0,0
2120,1660892923.457656463,gps,-1,0,35.653661,139.793030,2.642000,0,0,0,0,0,0,0,0,0,0
2121,1660892923.655292121,gps,-1,0,35.653662,139.793030,2.703000,0,0,0,0,0,0,0,0,0,0
2122,1660892923.853955231,gps,-1,0,35.653663,139.793030,2.702000,0,0,0,0,0,0,0,0,0,0
2123,1660892924.059596602,gps,-1,0,35.653664,139.793030,2.681000,0,0,0,0,0,0,0,0,0,0
2124,1660892924.254575223,gps,-1,0,35.653664,139.793030,2.756000,0,0,0,0,0,0,0,0,0,0
2125,1660892924.449971332,gps,-1,0,35.653665,139.793030,2.804000,0,0,0,0,0,0,0,0,0,0
2126,1660892924.655331627,gps,-1,0,35.653667,139.793030,2.764000,0,0,0,0,0,0,0,0,0,0
2127,1660892924.852510928,gps,-1,0,35.653669,139.793030,2.813000,0,0,0,0,0,0,0,0,0,0
2128,1660892925.060627952,gps,-1,0,35.653669,139.793045,2.900000,0,0,0,0,0,0,0,0,0,0
2129,1660892925.255654047,gps,-1,0,35.653671,139.793045,2.864000,0,0,0,0,0,0,0,0,0,0
2130,1660892925.454771771,gps,-1,0,35.653672,139.793045,2.894000,0,0,0,0,0,0,0,0,0,0
2131,1660892925.656702273,gps,-1,0,35.653672,139.793045,2.958000,0,0,0,0,0,0,0,0,0,0
2132,1660892925.853544152,gps,-1,0,35.653674,139.793045,2.954000,0,0,0,0,0,0,0,0,0,0
2133,1660892926.061790990,gps,-1,0,35.653675,139.793045,2.981000,0,0,0,0,0,0,0,0,0,0
2134,1660892926.251352529,gps,-1,0,35.653676,139.793045,3.041000,0,0,0,0,0,0,0,0,0,0
2135,1660892926.455677069,gps,-1,0,35.653677,139.793045,3.061000,0,0,0,0,0,0,0,0,0,0
2136,1660892926.656835174,gps,-1,0,35.653678,139.793045,3.039000,0,0,0,0,0,0,0,0,0,0
2137,1660892926.855932148,gps,-1,0,35.653679,139.793045,3.119000,0,0,0,0,0,0,0,0,0,0
2138,1660892927.061939392,gps,-1,0,35.653680,139.793060,3.120000,0,0,0,0,0,0,0,0,0,0
2139,1660892927.255476282,gps,-1,0,35.653682,139.793060,3.100000,0,0,0,0,0,0,0,0,0,0
2140,1660892927.456764706,gps,-1,0,35.653683,139.793060,3.164000,0,0,0,0,0,0,0,0,0,0
2141,1660892927.656004868,gps,-1,0,35.653684,139.793060,3.187000,0,0,0,0,0,0,0,0,0,0
2142,1660892927.853646552,gps,-1,0,35.653685,139.793060,3.173000,0,0,0,0,0,0,0,0,0,0
2143,1660892928.055421069,gps,-1,0,35.653686,139.793060,3.226000,0,0,0,0,0,0,0,0,0,0
2144,1660892928.255017971,gps,-1,0,35.653687,139.793060,3.248000,0,0,0,0,0,0,0,0,0,0
2145,1660892928.453994017,gps,-1,0,35.653688,139.793060,3.231000,0,0,0,0,0,0,0,0,0,0
2146,1660892928.655795913,gps,-1,0,35.653690,139.793060,3.279000,0,0,0,0,0,0,0,0,0,0
2147,1660892928.855996641,gps,-1,0,35.653691,139.793060,3.317000,0,0,0,0,0,0,0,0,0,0
2148,1660892929.060664343,gps,-1,0,35.653692,139.793076,3.350000,0,0,0,0,0,0,0,0,0,0
2149,1660892929.255760274,gps,-1,0,35.653692,139.793076,3.370000,0,0,0,0,0,0,0,0,0,0
2150,1660892929.455486154,gps,-1,0,35.653693,139.793076,3.422000,0,0,0,0,0,0,0,0,0,0
2151,1660892929.655425097,gps,-1,0,35.653694,139.793076,3.421000,0,0,0,0,0,0,0,0,0,0
2152,1660892929.848877696,gps,-1,0,35.653696,139.793076,3.428000,0,0,0,0,0,0,0,0,0,0
2153,1660892930.059078086,gps,-1,0,35.653697,139.793076,3.490000,0,0,0,0,0,0,0,0,0,0
2154,1660892930.254783672,gps,-1,0,35.653698,139.793076,3.483000,0,0,0,0,0,0,0,0,0,0
2155,1660892930.455756059,gps,-1,0,35.653699,139.793076,3.453000,0,0,0,0,0,0,0,0,0,0
2156,1660892930.652961305,gps,-1,0,35.653700,139.793076,3.513000,0,0,0,0,0,0,0,0,0,0
2157,1660892930.851750917,gps,-1,0,35.653701,139.793076,3.520000,0,0,0,0,0,0,0,0,0,0
2158,1660892931.058467334,gps,-1,0,35.653702,139.793091,3.498000,0,0,0,0,0,0,0,0,0,0
2159,1660892931.252892553,gps,-1,0,35.653704,139.793091,3.551000,0,0,0,0,0,0,0,0,0,0
2160,1660892931.451074568,gps,-1,0,35.653704,139.793091,3.581000,0,0,0,0,0,0,0,0,0,0
2161,1660892931.648009126,gps,-1,0,35.653706,139.793091,3.544000,0,0,0,0,0,0,0,0,0,0
2162,1660892931.851014321,gps,-1,0,35.653707,139.793091,3.607000,0,0,0,0,0,0,0,0,0,0
2163,1660892932.056942068,gps,-1,0,35.653708,139.793091,3.696000,0,0,0,0,0,0,0,0,0,0
2164,1660892932.254092031,gps,-1,0,35.653709,139.793091,3.652000,0,0,0,0,0,0,0,0,0,0
2165,1660892932.455009313,gps,-1,0,35.653711,139.793091,3.700000,0,0,0,0,0,0,0,0,0,0
2166,1660892932.654997772,gps,-1,0,35.653712,139.793091,3.708000,0,0,0,0,0,0,0,0,0,0
2167,1660892932.854072671,gps,-1,0,35.653713,139.793091,3.708000,0,0,0,0,0,0,0,0,0,0
2168,1660892933.058045971,gps,-1,0,35.653714,139.793106,3.721000,0,0,0,0,0,0,0,0,0,0
2169,1660892933.255412014,gps,-1,0,35.653715,139.793106,3.807000,0,0,0,0,0,0,0,0,0,0
2170,1660892933.451923591,gps,-1,0,35.653716,139.793106,3.796000,0,0,0,0,0,0,0,0,0,0
2171,1660892933.655945458,gps,-1,0,35.653718,139.793106,3.794000,0,0,0,0,0,0,0,0,0,0
2172,1660892933.853533553,gps,-1,0,35.653719,139.793106,3.865000,0,0,0,0,0,0,0,0,0,0
2173,1660892934.060767303,gps,-1,0,35.653720,139.793106,3.885000,0,0,0,0,0,0,0,0,0,0
2174,1660892934.254648274,gps,-1,0,35.653722,139.793106,3.865000,0,0,0,0,0,0,0,0,0,0
2175,1660892934.453888269,gps,-1,0,35.653722,139.793106,3.944000,0,0,0,0,0,0,0,0,0,0
2176,1660892934.656632501,gps,-1,0,35.653724,139.793106,3.969000,0,0,0,0,0,0,0,0,0,0
2177,1660892934.855088202,gps,-1,0,35.653725,139.793106,3.972000,0,0,0,0,0,0,0,0,0,0
2178,1660892935.059480198,gps,-1,0,35.653727,139.793106,4.045000,0,0,0,0,0,0,0,0,0,0
2179,1660892935.251820685,gps,-1,0,35.653728,139.793121,4.071000,0,0,0,0,0,0,0,0,0,0
2180,1660892935.455470980,gps,-1,0,35.653729,139.793121,4.060000,0,0,0,0,0,0,0,0,0,0
2181,1660892935.652020301,gps,-1,0,35.653730,139.793121,4.106000,0,0,0,0,0,0,0,0,0,0
2182,1660892935.853567648,gps,-1,0,35.653731,139.793121,4.154000,0,0,0,0,0,0,0,0,0,0
2183,1660892936.058418184,gps,-1,0,35.653733,139.793121,4.083000,0,0,0,0,0,0,0,0,0,0
2184,1660892936.252798847,gps,-1,0,35.653734,139.793121,4.147000,0,0,0,0,0,0,0,0,0,0
2185,1660892936.454888324,gps,-1,0,35.653735,139.793121,4.190000,0,0,0,0,0,0,0,0,0,0
2186,1660892936.656410446,gps,-1,0,35.653736,139.793121,4.123000,0,0,0,0,0,0,0,0,0,0
2187,1660892936.853665899,gps,-1,0,35.653737,139.793137,4.157000,0,0,0,0,0,0,0,0,0,0
2188,1660892937.053944240,gps,-1,0,35.653738,139.793137,4.193000,0,0,0,0,0,0,0,0,0,0
2189,1660892937.253907674,gps,-1,0,35.653739,139.793137,4.130000,0,0,0,0,0,0,0,0,0,0
2190,1660892937.451850788,gps,-1,0,35.653741,139.793137,4.165000,0,0,0,0,0,0,0,0,0,0
2191,1660892937.653839783,gps,-1,0,35.653742,139.793137,4.230000,0,0,0,0,0,0,0,0,0,0
2192,1660892937.852626019,gps,-1,0,35.653743,139.793137,4.212000,0,0,0,0,0,0,0,0,0,0
2193,1660892938.058713831,gps,-1,0,35.653744,139.793137,4.224000,0,0,0,0,0,0,0,0,0,0
2194,1660892938.255029948,gps,-1,0,35.653744,139.793137,4.281000,0,0,0,0,0,0,0,0,0,0
2195,1660892938.452787123,gps,-1,0,35.653746,139.793137,4.218000,0,0,0,0,0,0,0,0,0,0
2196,1660892938.651743544,gps,-1,0,35.653748,139.793137,4.248000,0,0,0,0,0,0,0,0,0,0
2197,1660892938.848478290,gps,-1,0,35.653749,139.793152,4.294000,0,0,0,0,0,0,0,0,0,0
2198,1660892939.058019616,gps,-1,0,35.653750,139.793152,4.250000,0,0,0,0,0,0,0,0,0,0
2199,1660892939.253888220,gps,-1,0,35.653751,139.793152,4.259000,0,0,0,0,0,0,0,0,0,0
2200,1660892939.455612402,gps,-1,0,35.653752,139.793152,4.290000,0,0,0,0,0,0,0,0,0,0
2201,1660892939.654762992,gps,-1,0,35.653753,139.793152,4.247000,0,0,0,0,0,0,0,0,0,0
2202,1660892939.851016171,gps,-1,0,35.653755,139.793152,4.251000,0,0,0,0,0,0,0,0,0,0
2203,1660892940.058681455,gps,-1,0,35.653756,139.793152,4.276000,0,0,0,0,0,0,0,0,0,0
2204,1660892940.252975640,gps,-1,0,35.653756,139.793152,4.235000,0,0,0,0,0,0,0,0,0,0
2205,1660892940.449737944,gps,-1,0,35.653758,139.793167,4.270000,0,0,0,0,0,0,0,0,0,0
2206,1660892940.646896675,gps,-1,0,35.653758,139.793167,4.300000,0,0,0,0,0,0,0,0,0,0
2207,1660892940.849403124,gps,-1,0,35.653760,139.793167,4.293000,0,0,0,0,0,0,0,0,0,0
2208,1660892941.055983520,gps,-1,0,35.653761,139.793167,4.288000,0,0,0,0,0,0,0,0,0,0
2209,1660892941.251811895,gps,-1,0,35.653762,139.793167,4.297000,0,0,0,0,0,0,0,0,0,0
2210,1660892941.453679468,gps,-1,0,35.653763,139.793167,4.266000,0,0,0,0,0,0,0,0,0,0
2211,1660892941.651898966,gps,-1,0,35.653764,139.793167,4.253000,0,0,0,0,0,0,0,0,0,0
2212,1660892941.852741434,gps,-1,0,35.653765,139.793167,4.313000,0,0,0,0,0,0,0,0,0,0
2213,1660892942.058516807,gps,-1,0,35.653766,139.793167,4.284000,0,0,0,0,0,0,0,0,0,0
2214,1660892942.251644357,gps,-1,0,35.653768,139.793167,4.289000,0,0,0,0,0,0,0,0,0,0
2215,1660892942.448669448,gps,-1,0,35.653769,139.793182,4.343000,0,0,0,0,0,0,0,0,0,0
2216,1660892942.653032202,gps,-1,0,35.653770,139.793182,4.305000,0,0,0,0,0,0,0,0,0,0
2217,1660892942.850023005,gps,-1,0,35.653771,139.793182,4.280000,0,0,0,0,0,0,0,0,0,0
2218,1660892943.058108849,gps,-1,0,35.653773,139.793182,4.315000,0,0,0,0,0,0,0,0,0,0
2219,1660892943.254990463,gps,-1,0,35.653774,139.793182,4.270000,0,0,0,0,0,0,0,0,0,0
2220,1660892943.455749250,gps,-1,0,35.653776,139.793182,4.216000,0,0,0,0,0,0,0,0,0,0
2221,1660892943.654712040,gps,-1,0,35.653777,139.793182,4.269000,0,0,0,0,0,0,0,0,0,0
2222,1660892943.852737108,gps,-1,0,35.653778,139.793182,4.240000,0,0,0,0,0,0,0,0,0,0
2223,1660892944.058094262,gps,-1,0,35.653779,139.793198,4.168000,0,0,0,0,0,0,0,0,0,0
2224,1660892944.248936778,gps,-1,0,35.653780,139.793198,4.212000,0,0,0,0,0,0,0,0,0,0
2225,1660892944.453654392,gps,-1,0,35.653782,139.793198,4.183000,0,0,0,0,0,0,0,0,0,0
2226,1660892944.653068617,gps,-1,0,35.653783,139.793198,4.151000,0,0,0,0,0,0,0,0,0,0
2227,1660892944.852787457,gps,-1,0,35.653784,139.793198,4.166000,0,0,0,0,0,0,0,0,0,0
2228,1660892945.055649254,gps,-1,0,35.653785,139.793198,4.147000,0,0,0,0,0,0,0,0,0,0
2229,1660892945.250633897,gps,-1,0,35.653786,139.793198,4.113000,0,0,0,0,0,0,0,0,0,0
2230,1660892945.451743931,gps,-1,0,35.653787,139.793198,4.160000,0,0,0,0,0,0,0,0,0,0
2231,1660892945.652752139,gps,-1,0,35.653788,139.793198,4.136000,0,0,0,0,0,0,0,0,0,0
2232,1660892945.849909475,gps,-1,0,35.653790,139.793213,4.090000,0,0,0,0,0,0,0,0,0,0
2233,1660892946.052840786,gps,-1,0,35.653791,139.793213,4.101000,0,0,0,0,0,0,0,0,0,0
2234,1660892946.252690638,gps,-1,0,35.653792,139.793213,4.144000,0,0,0,0,0,0,0,0,0,0
2235,1660892946.454987863,gps,-1,0,35.653793,139.793213,4.082000,0,0,0,0,0,0,0,0,0,0
2236,1660892946.654044170,gps,-1,0,35.653794,139.793213,4.118000,0,0,0,0,0,0,0,0,0,0
2237,1660892946.851811330,gps,-1,0,35.653795,139.793213,4.090000,0,0,0,0,0,0,0,0,0,0
2238,1660892947.057830472,gps,-1,0,35.653797,139.793213,4.049000,0,0,0,0,0,0,0,0,0,0
2239,1660892947.252967145,gps,-1,0,35.653798,139.793213,4.067000,0,0,0,0,0,0,0,0,0,0
2240,1660892947.452758573,gps,-1,0,35.653799,139.793228,4.074000,0,0,0,0,0,0,0,0,0,0
2241,1660892947.651552679,gps,-1,0,35.653799,139.793228,4.065000,0,0,0,0,0,0,0,0,0,0
2242,1660892947.844906932,gps,-1,0,35.653800,139.793228,4.089000,0,0,0,0,0,0,0,0,0,0
2243,1660892948.056730712,gps,-1,0,35.653801,139.793228,4.050000,0,0,0,0,0,0,0,0,0,0
2244,1660892948.255923578,gps,-1,0,35.653802,139.793228,4.018000,0,0,0,0,0,0,0,0,0,0
2245,1660892948.453627986,gps,-1,0,35.653803,139.793228,4.020000,0,0,0,0,0,0,0,0,0,0
2246,1660892948.653998848,gps,-1,0,35.653804,139.793228,4.024000,0,0,0,0,0,0,0,0,0,0
2247,1660892948.852651151,gps,-1,0,35.653806,139.793228,3.962000,0,0,0,0,0,0,0,0,0,0
2248,1660892949.059750023,gps,-1,0,35.653807,139.793228,3.982000,0,0,0,0,0,0,0,0,0,0
2249,1660892949.253760317,gps,-1,0,35.653808,139.793228,3.972000,0,0,0,0,0,0,0,0,0,0
2250,1660892949.450608835,gps,-1,0,35.653809,139.793228,3.939000,0,0,0,0,0,0,0,0,0,0
2251,1660892949.648662039,gps,-1,0,35.653810,139.793228,3.949000,0,0,0,0,0,0,0,0,0,0
2252,1660892949.853026586,gps,-1,0,35.653811,139.793228,3.938000,0,0,0,0,0,0,0,0,0,0
2253,1660892950.058990827,gps,-1,0,35.653813,139.793228,3.880000,0,0,0,0,0,0,0,0,0,0
2254,1660892950.254972664,gps,-1,0,35.653815,139.793228,3.890000,0,0,0,0,0,0,0,0,0,0
2255,1660892950.453941553,gps,-1,0,35.653816,139.793228,3.918000,0,0,0,0,0,0,0,0,0,0
2256,1660892950.653030017,gps,-1,0,35.653817,139.793213,3.851000,0,0,0,0,0,0,0,0,0,0
2257,1660892950.851934947,gps,-1,0,35.653818,139.793213,3.869000,0,0,0,0,0,0,0,0,0,0
2258,1660892951.058351786,gps,-1,0,35.653819,139.793213,3.858000,0,0,0,0,0,0,0,0,0,0
2259,1660892951.254103460,gps,-1,0,35.653821,139.793213,3.806000,0,0,0,0,0,0,0,0,0,0
2260,1660892951.449590739,gps,-1,0,35.653823,139.793213,3.768000,0,0,0,0,0,0,0,0,0,0
2261,1660892951.653851407,gps,-1,0,35.653824,139.793213,3.791000,0,0,0,0,0,0,0,0,0,0
2262,1660892951.851663361,gps,-1,0,35.653826,139.793213,3.727000,0,0,0,0,0,0,0,0,0,0
2263,1660892952.061564813,gps,-1,0,35.653827,139.793213,3.688000,0,0,0,0,0,0,0,0,0,0
2264,1660892952.254523553,gps,-1,0,35.653828,139.793213,3.697000,0,0,0,0,0,0,0,0,0,0
2265,1660892952.452863874,gps,-1,0,35.653830,139.793213,3.646000,0,0,0,0,0,0,0,0,0,0
2266,1660892952.655116764,gps,-1,0,35.653832,139.793213,3.649000,0,0,0,0,0,0,0,0,0,0
2267,1660892952.854567587,gps,-1,0,35.653833,139.793213,3.653000,0,0,0,0,0,0,0,0,0,0
2268,1660892953.058637082,gps,-1,0,35.653834,139.793213,3.575000,0,0,0,0,0,0,0,0,0,0
2269,1660892953.249476683,gps,-1,0,35.653836,139.793198,3.548000,0,0,0,0,0,0,0,0,0,0
2270,1660892953.451914534,gps,-1,0,35.653837,139.793198,3.569000,0,0,0,0,0,0,0,0,0,0
2271,1660892953.652538977,gps,-1,0,35.653839,139.793198,3.528000,0,0,0,0,0,0,0,0,0,0
2272,1660892953.849950019,gps,-1,0,35.653841,139.793198,3.478000,0,0,0,0,0,0,0,0,0,0
2273,1660892954.056655283,gps,-1,0,35.653842,139.793198,3.573000,0,0,0,0,0,0,0,0,0,0
2274,1660892954.250814414,gps,-1,0,35.653843,139.793198,3.532000,0,0,0,0,0,0,0,0,0,0
2275,1660892954.451931640,gps,-1,0,35.653845,139.793198,3.532000,0,0,0,0,0,0,0,0,0,0
2276,1660892954.650764937,gps,-1,0,35.653846,139.793198,3.544000,0,0,0,0,0,0,0,0,0,0
2277,1660892954.849188592,gps,-1,0,35.653848,139.793198,3.503000,0,0,0,0,0,0,0,0,0,0
2278,1660892955.051875628,gps,-1,0,35.653850,139.793198,3.491000,0,0,0,0,0,0,0,0,0,0
2279,1660892955.251597271,gps,-1,0,35.653851,139.793198,3.499000,0,0,0,0,0,0,0,0,0,0
2280,1660892955.449759884,gps,-1,0,35.653852,139.793198,3.517000,0,0,0,0,0,0,0,0,0,0
2281,1660892955.652638685,gps,-1,0,35.653854,139.793198,3.495000,0,0,0,0,0,0,0,0,0,0
2282,1660892955.852637221,gps,-1,0,35.653855,139.793198,3.526000,0,0,0,0,0,0,0,0,0,0
2283,1660892956.058092897,gps,-1,0,35.653857,139.793198,3.472000,0,0,0,0,0,0,0,0,0,0
2284,1660892956.254150019,gps,-1,0,35.653859,139.793198,3.469000,0,0,0,0,0,0,0,0,0,0
2285,1660892956.454721933,gps,-1,0,35.653861,139.793182,3.474000,0,0,0,0,0,0,0,0,0,0
2286,1660892956.653637166,gps,-1,0,35.653862,139.793182,3.437000,0,0,0,0,0,0,0,0,0,0
2287,1660892956.847746212,gps,-1,0,35.653864,139.793182,3.416000,0,0,0,0,0,0,0,0,0,0
2288,1660892957.058769373,gps,-1,0,35.653865,139.793182,3.438000,0,0,0,0,0,0,0,0,0,0
2289,1660892957.252794352,gps,-1,0,35.653867,139.793182,3.433000,0,0,0,0,0,0,0,0,0,0
2290,1660892957.451808236,gps,-1,0,35.653869,139.793182,3.378000,0,0,0,0,0,0,0,0,0,0
2291,1660892957.652590191,gps,-1,0,35.653871,139.793182,3.435000,0,0,0,0,0,0,0,0,0,0
2292,1660892957.849805438,gps,-1,0,35.653872,139.793182,3.434000,0,0,0,0,0,0,0,0,0,0
2293,1660892958.057546714,gps,-1,0,35.653874,139.793182,3.384000,0,0,0,0,0,0,0,0,0,0
2294,1660892958.252165253,gps,-1,0,35.653875,139.793182,3.430000,0,0,0,0,0,0,0,0,0,0
2295,1660892958.450046318,gps,-1,0,35.653877,139.793182,3.475000,0,0,0,0,0,0,0,0,0,0
2296,1660892958.647920211,gps,-1,0,35.653879,139.793182,3.446000,0,0,0,0,0,0,0,0,0,0
2297,1660892958.850639879,gps,-1,0,35.653880,139.793182,3.507000,0,0,0,0,0,0,0,0,0,0
2298,1660892959.054096267,gps,-1,0,35.653881,139.793182,3.499000,0,0,0,0,0,0,0,0,0,0
2299,1660892959.251664431,gps,-1,0,35.653884,139.793182,3.474000,0,0,0,0,0,0,0,0,0,0
2300,1660892959.451026201,gps,-1,0,35.653885,139.793182,3.510000,0,0,0,0,0,0,0,0,0,0
2301,1660892959.651041385,gps,-1,0,35.653886,139.793182,3.508000,0,0,0,0,0,0,0,0,0,0
2302,1660892959.850367929,gps,-1,0,35.653889,139.793182,3.473000,0,0,0,0,0,0,0,0,0,0
2303,1660892960.056421041,gps,-1,0,35.653890,139.793167,3.492000,0,0,0,0,0,0,0,0,0,0
2304,1660892960.252850075,gps,-1,0,35.653891,139.793167,3.504000,0,0,0,0,0,0,0,0,0,0
2305,1660892960.447667138,gps,-1,0,35.653893,139.793167,3.443000,0,0,0,0,0,0,0,0,0,0
2306,1660892960.652717684,gps,-1,0,35.653894,139.793167,3.476000,0,0,0,0,0,0,0,0,0,0
2307,1660892960.849985558,gps,-1,0,35.653895,139.793167,3.478000,0,0,0,0,0,0,0,0,0,0
2308,1660892961.058077101,gps,-1,0,35.653897,139.793167,3.424000,0,0,0,0,0,0,0,0,0,0
2309,1660892961.252901479,gps,-1,0,35.653898,139.793167,3.394000,0,0,0,0,0,0,0,0,0,0
2310,1660892961.451917026,gps,-1,0,35.653899,139.793167,3.418000,0,0,0,0,0,0,0,0,0,0
2311,1660892961.652901659,gps,-1,0,35.653901,139.793167,3.381000,0,0,0,0,0,0,0,0,0,0
2312,1660892961.850677283,gps,-1,0,35.653902,139.793167,3.412000,0,0,0,0,0,0,0,0,0,0
2313,1660892962.056574185,gps,-1,0,35.653903,139.793167,3.438000,0,0,0,0,0,0,0,0,0,0
2314,1660892962.248249779,gps,-1,0,35.653904,139.793167,3.396000,0,0,0,0,0,0,0,0,0,0
2315,1660892962.452774927,gps,-1,0,35.653905,139.793167,3.406000,0,0,0,0,0,0,0,0,0,0
2316,1660892962.651895894,gps,-1,0,35.653905,139.793167,3.450000,0,0,0,0,0,0,0,0,0,0
2317,1660892962.850774109,gps,-1,0,35.653906,139.793167,3.444000,0,0,0,0,0,0,0,0,0,0
2318,1660892963.056690235,gps,-1,0,35.653907,139.793167,3.500000,0,0,0,0,0,0,0,0,0,0
2319,1660892963.250528804,gps,-1,0,35.653907,139.793167,3.537000,0,0,0,0,0,0,0,0,0,0
2320,1660892963.449891863,gps,-1,0,35.653907,139.793167,3.518000,0,0,0,0,0,0,0,0,0,0
2321,1660892963.649896781,gps,-1,0,35.653908,139.793167,3.527000,0,0,0,0,0,0,0,0,0,0
2322,1660892963.848456252,gps,-1,0,35.653909,139.793167,3.478000,0,0,0,0,0,0,0,0,0,0
2323,1660892964.050722235,gps,-1,0,35.653910,139.793167,3.485000,0,0,0,0,0,0,0,0,0,0
2324,1660892964.250912121,gps,-1,0,35.653910,139.793167,3.507000,0,0,0,0,0,0,0,0,0,0
2325,1660892964.449876416,gps,-1,0,35.653911,139.793167,3.534000,0,0,0,0,0,0,0,0,0,0
2326,1660892964.652000550,gps,-1,0,35.653911,139.793167,3.515000,0,0,0,0,0,0,0,0,0,0
2327,1660892964.849492941,gps,-1,0,35.653912,139.793167,3.513000,0,0,0,0,0,0,0,0,0,0
2328,1660892965.054925032,gps,-1,0,35.653912,139.793167,3.535000,0,0,0,0,0,0,0,0,0,0
2329,1660892965.252533268,gps,-1,0,35.653912,139.793167,3.522000,0,0,0,0,0,0,0,0,0,0
2330,1660892965.450891883,gps,-1,0,35.653912,139.793167,3.514000,0,0,0,0,0,0,0,0,0,0
2331,1660892965.649929030,gps,-1,0,35.653912,139.793167,3.511000,0,0,0,0,0,0,0,0,0,0
2332,1660892965.846448440,gps,-1,0,35.653913,139.793167,3.515000,0,0,0,0,0,0,0,0,0,0
2333,1660892966.057419550,gps,-1,0,35.653913,139.793167,3.534000,0,0,0,0,0,0,0,0,0,0
2334,1660892966.250938326,gps,-1,0,35.653913,139.793167,3.516000,0,0,0,0,0,0,0,0,0,0
2335,1660892966.451996778,gps,-1,0,35.653913,139.793167,3.521000,0,0,0,0,0,0,0,0,0,0
2336,1660892966.652650504,gps,-1,0,35.653913,139.793167,3.517000,0,0,0,0,0,0,0,0,0,0
2337,1660892966.849685389,gps,-1,0,35.653913,139.793167,3.535000,0,0,0,0,0,0,0,0,0,0
2338,1660892967.058481644,gps,-1,0,35.653913,139.793167,3.574000,0,0,0,0,0,0,0,0,0,0
2339,1660892967.252029786,gps,-1,0,35.653913,139.793167,3.633000,0,0,0,0,0,0,0,0,0,0
2340,1660892967.449492398,gps,-1,0,35.653913,139.793167,3.634000,0,0,0,0,0,0,0,0,0,0
2341,1660892967.646723184,gps,-1,0,35.653913,139.793167,3.636000,0,0,0,0,0,0,0,0,0,0
2342,1660892967.848456540,gps,-1,0,35.653914,139.793167,3.650000,0,0,0,0,0,0,0,0,0,0
2343,1660892968.052925128,gps,-1,0,35.653916,139.793167,3.630000,0,0,0,0,0,0,0,0,0,0
2344,1660892968.250610460,gps,-1,0,35.653917,139.793167,3.641000,0,0,0,0,0,0,0,0,0,0
2345,1660892968.449906578,gps,-1,0,35.653918,139.793167,3.655000,0,0,0,0,0,0,0,0,0,0
2346,1660892968.651773393,gps,-1,0,35.653919,139.793167,3.650000,0,0,0,0,0,0,0,0,0,0
2347,1660892968.849531572,gps,-1,0,35.653921,139.793152,3.654000,0,0,0,0,0,0,0,0,0,0
2348,1660892969.055682691,gps,-1,0,35.653922,139.793152,3.667000,0,0,0,0,0,0,0,0,0,0
2349,1660892969.249491755,gps,-1,0,35.653923,139.793152,3.685000,0,0,0,0,0,0,0,0,0,0
2350,1660892969.447753949,gps,-1,0,35.653925,139.793152,3.656000,0,0,0,0,0,0,0,0,0,0
2351,1660892969.650041589,gps,-1,0,35.653926,139.793152,3.711000,0,0,0,0,0,0,0,0,0,0
2352,1660892969.849767945,gps,-1,0,35.653927,139.793152,3.768000,0,0,0,0,0,0,0,0,0,0
2353,1660892970.058031906,gps,-1,0,35.653929,139.793152,3.747000,0,0,0,0,0,0,0,0,0,0
2354,1660892970.253703312,gps,-1,0,35.653930,139.793152,3.818000,0,0,0,0,0,0,0,0,0,0
2355,1660892970.452710508,gps,-1,0,35.653931,139.793152,3.818000,0,0,0,0,0,0,0,0,0,0
2356,1660892970.651827325,gps,-1,0,35.653933,139.793152,3.785000,0,0,0,0,0,0,0,0,0,0
2357,1660892970.849511011,gps,-1,0,35.653935,139.793152,3.813000,0,0,0,0,0,0,0,0,0,0
2358,1660892971.056841709,gps,-1,0,35.653936,139.793152,3.835000,0,0,0,0,0,0,0,0,0,0
2359,1660892971.246790242,gps,-1,0,35.653937,139.793152,3.755000,0,0,0,0,0,0,0,0,0,0
2360,1660892971.449769015,gps,-1,0,35.653939,139.793152,3.805000,0,0,0,0,0,0,0,0,0,0
2361,1660892971.650871078,gps,-1,0,35.653940,139.793152,3.856000,0,0,0,0,0,0,0,0,0,0
2362,1660892971.848823831,gps,-1,0,35.653942,139.793152,3.918000,0,0,0,0,0,0,0,0,0,0
2363,1660892972.054311420,gps,-1,0,35.653943,139.793152,3.946000,0,0,0,0,0,0,0,0,0,0
2364,1660892972.248680630,gps,-1,0,35.653944,139.793152,4.000000,0,0,0,0,0,0,0,0,0,0
2365,1660892972.448559797,gps,-1,0,35.653946,139.793152,3.952000,0,0,0,0,0,0,0,0,0,0
2366,1660892972.648470730,gps,-1,0,35.653947,139.793152,4.066000,0,0,0,0,0,0,0,0,0,0
2367,1660892972.846928483,gps,-1,0,35.653948,139.793152,4.104000,0,0,0,0,0,0,0,0,0,0
2368,1660892973.049481492,gps,-1,0,35.653950,139.793152,4.112000,0,0,0,0,0,0,0,0,0,0
2369,1660892973.250924349,gps,-1,0,35.653952,139.793152,4.122000,0,0,0,0,0,0,0,0,0,0
2370,1660892973.450923217,gps,-1,0,35.653953,139.793152,4.171000,0,0,0,0,0,0,0,0,0,0
2371,1660892973.652614845,gps,-1,0,35.653955,139.793137,4.139000,0,0,0,0,0,0,0,0,0,0
2372,1660892973.853564368,gps,-1,0,35.653956,139.793137,4.142000,0,0,0,0,0,0,0,0,0,0
2373,1660892974.054793889,gps,-1,0,35.653957,139.793137,4.189000,0,0,0,0,0,0,0,0,0,0
2374,1660892974.252538182,gps,-1,0,35.653959,139.793137,4.098000,0,0,0,0,0,0,0,0,0,0
2375,1660892974.449840419,gps,-1,0,35.653961,139.793137,4.077000,0,0,0,0,0,0,0,0,0,0
2376,1660892974.648605478,gps,-1,0,35.653962,139.793137,4.109000,0,0,0,0,0,0,0,0,0,0
2377,1660892974.843779483,gps,-1,0,35.653964,139.793137,4.098000,0,0,0,0,0,0,0,0,0,0
2378,1660892975.054371798,gps,-1,0,35.653965,139.793137,4.025000,0,0,0,0,0,0,0,0,0,0
2379,1660892975.249386225,gps,-1,0,35.653966,139.793137,4.085000,0,0,0,0,0,0,0,0,0,0
2380,1660892975.449759274,gps,-1,0,35.653968,139.793137,4.005000,0,0,0,0,0,0,0,0,0,0
2381,1660892975.649714330,gps,-1,0,35.653970,139.793137,3.822000,0,0,0,0,0,0,0,0,0,0
2382,1660892975.845814752,gps,-1,0,35.653972,139.793137,3.723000,0,0,0,0,0,0,0,0,0,0
2383,1660892976.053003771,gps,-1,0,35.653973,139.793137,3.758000,0,0,0,0,0,0,0,0,0,0
2384,1660892976.249566481,gps,-1,0,35.653975,139.793137,3.716000,0,0,0,0,0,0,0,0,0,0
2385,1660892976.447783009,gps,-1,0,35.653977,139.793137,3.727000,0,0,0,0,0,0,0,0,0,0
2386,1660892976.642694627,gps,-1,0,35.653978,139.793137,3.709000,0,0,0,0,0,0,0,0,0,0
2387,1660892976.845593212,gps,-1,0,35.653980,139.793137,3.646000,0,0,0,0,0,0,0,0,0,0
2388,1660892977.052470646,gps,-1,0,35.653981,139.793137,3.626000,0,0,0,0,0,0,0,0,0,0
2389,1660892977.250947861,gps,-1,0,35.653983,139.793137,3.636000,0,0,0,0,0,0,0,0,0,0
2390,1660892977.449445153,gps,-1,0,35.653984,139.793137,3.638000,0,0,0,0,0,0,0,0,0,0
2391,1660892977.650883013,gps,-1,0,35.653986,139.793137,3.572000,0,0,0,0,0,0,0,0,0,0
2392,1660892977.849580391,gps,-1,0,35.653987,139.793137,3.670000,0,0,0,0,0,0,0,0,0,0
2393,1660892978.052591157,gps,-1,0,35.653988,139.793137,3.704000,0,0,0,0,0,0,0,0,0,0
2394,1660892978.250833912,gps,-1,0,35.653990,139.793137,3.596000,0,0,0,0,0,0,0,0,0,0
2395,1660892978.446840392,gps,-1,0,35.653991,139.793137,3.671000,0,0,0,0,0,0,0,0,0,0
2396,1660892978.650755910,gps,-1,0,35.653993,139.793137,3.622000,0,0,0,0,0,0,0,0,0,0
2397,1660892978.849298237,gps,-1,0,35.653995,139.793137,3.581000,0,0,0,0,0,0,0,0,0,0
2398,1660892979.055943186,gps,-1,0,35.653996,139.793121,3.624000,0,0,0,0,0,0,0,0,0,0
2399,1660892979.250476874,gps,-1,0,35.653997,139.793121,3.650000,0,0,0,0,0,0,0,0,0,0
2400,1660892979.448422842,gps,-1,0,35.653999,139.793121,3.628000,0,0,0,0,0,0,0,0,0,0
2401,1660892979.649735984,gps,-1,0,35.654001,139.793121,3.654000,0,0,0,0,0,0,0,0,0,0
2402,1660892979.849576151,gps,-1,0,35.654002,139.793121,3.698000,0,0,0,0,0,0,0,0,0,0
2403,1660892980.054581559,gps,-1,0,35.654003,139.793121,3.716000,0,0,0,0,0,0,0,0,0,0
2404,1660892980.245603277,gps,-1,0,35.654005,139.793121,3.775000,0,0,0,0,0,0,0,0,0,0
2405,1660892980.450883757,gps,-1,0,35.654006,139.793121,3.847000,0,0,0,0,0,0,0,0,0,0
2406,1660892980.649926881,gps,-1,0,35.654007,139.793121,3.855000,0,0,0,0,0,0,0,0,0,0
2407,1660892980.849388794,gps,-1,0,35.654009,139.793121,3.925000,0,0,0,0,0,0,0,0,0,0
2408,1660892981.055879864,gps,-1,0,35.654010,139.793121,4.001000,0,0,0,0,0,0,0,0,0,0
2409,1660892981.251693303,gps,-1,0,35.654011,139.793121,4.015000,0,0,0,0,0,0,0,0,0,0
2410,1660892981.450519393,gps,-1,0,35.654013,139.793121,4.071000,0,0,0,0,0,0,0,0,0,0
2411,1660892981.650946868,gps,-1,0,35.654014,139.793121,4.171000,0,0,0,0,0,0,0,0,0,0
2412,1660892981.848128315,gps,-1,0,35.654015,139.793121,4.229000,0,0,0,0,0,0,0,0,0,0
2413,1660892982.050707722,gps,-1,0,35.654017,139.793121,4.211000,0,0,0,0,0,0,0,0,0,0
2414,1660892982.251582326,gps,-1,0,35.654018,139.793121,4.319000,0,0,0,0,0,0,0,0,0,0
2415,1660892982.449566288,gps,-1,0,35.654019,139.793106,4.360000,0,0,0,0,0,0,0,0,0,0
