field.header.seq,field.header.stamp,field.header.fream_if,field.status,field.status.service,field.latitude,field.longitude,field.altitude,position_covariance0,position_covariance1,position_covariance2,position_covariance3,position_covariance4,position_covariance5,position_covariance6,position_covariance7,position_covariance8,position_covariance_type
1701,1660893882.657610591,gps,0,0,35.6532841617,139.7925366133,4.2560000000,0,0,0,0,0,0,0,0,0,0
1702,1660893882.856327248,gps,0,0,35.6532841550,139.7925366050,4.2600000000,0,0,0,0,0,0,0,0,0,0
1703,1660893883.063657586,gps,0,0,35.6532841450,139.7925365783,4.2540000000,0,0,0,0,0,0,0,0,0,0
1704,1660893883.269166024,gps,0,0,35.6532841683,139.7925365483,4.2580000000,0,0,0,0,0,0,0,0,0,0
1705,1660893883.459292091,gps,0,0,35.6532842050,139.7925365333,4.2610000000,0,0,0,0,0,0,0,0,0,0
1706,1660893883.660398678,gps,0,0,35.6532841967,139.7925365433,4.2600000000,0,0,0,0,0,0,0,0,0,0
1707,1660893883.852525605,gps,0,0,35.6532842233,139.7925365800,4.2560000000,0,0,0,0,0,0,0,0,0,0
1708,1660893884.064740783,gps,0,0,35.6532842333,139.7925366083,4.2580000000,0,0,0,0,0,0,0,0,0,0
1709,1660893884.272809492,gps,0,0,35.6532842400,139.7925366350,4.2610000000,0,0,0,0,0,0,0,0,0,0
1710,1660893884.459384050,gps,0,0,35.6532842267,139.7925366350,4.2600000000,0,0,0,0,0,0,0,0,0,0
1711,1660893884.658598398,gps,0,0,35.6532842150,139.7925366050,4.2650000000,0,0,0,0,0,0,0,0,0,0
1712,1660893884.857418281,gps,0,0,35.6532841883,139.7925365800,4.2650000000,0,0,0,0,0,0,0,0,0,0
1713,1660893885.065495879,gps,0,0,35.6532841933,139.7925365900,4.2590000000,0,0,0,0,0,0,0,0,0,0
1714,1660893885.264547566,gps,0,0,35.6532841533,139.7925366183,4.2570000000,0,0,0,0,0,0,0,0,0,0
1715,1660893885.470432852,gps,0,0,35.6532841650,139.7925365683,4.2590000000,0,0,0,0,0,0,0,0,0,0
1716,1660893885.652639347,gps,0,0,35.6532842017,139.7925365500,4.2480000000,0,0,0,0,0,0,0,0,0,0
1717,1660893885.857602751,gps,0,0,35.6532842000,139.7925365183,4.2490000000,0,0,0,0,0,0,0,0,0,0
1718,1660893886.066123840,gps,0,0,35.6532842183,139.7925365550,4.2430000000,0,0,0,0,0,0,0,0,0,0
1719,1660893886.267514575,gps,0,0,35.6532842183,139.7925365400,4.2450000000,0,0,0,0,0,0,0,0,0,0
1720,1660893886.459021318,gps,0,0,35.6532842450,139.7925365417,4.2480000000,0,0,0,0,0,0,0,0,0,0
1721,1660893886.657507100,gps,0,0,35.6532841750,139.7925365300,4.2520000000,0,0,0,0,0,0,0,0,0,0
1722,1660893886.859119748,gps,0,0,35.6532841450,139.7925364683,4.2490000000,0,0,0,0,0,0,0,0,0,0
1723,1660893887.064487028,gps,0,0,35.6532841983,139.7925364483,4.2420000000,0,0,0,0,0,0,0,0,0,0
1724,1660893887.264407099,gps,0,0,35.6532841983,139.7925363950,4.2360000000,0,0,0,0,0,0,0,0,0,0
1725,1660893887.452638302,gps,0,0,35.6532842750,139.7925363867,4.2340000000,0,0,0,0,0,0,0,0,0,0
1726,1660893887.658923028,gps,0,0,35.6532842700,139.7925364317,4.2400000000,0,0,0,0,0,0,0,0,0,0
1727,1660893887.857726298,gps,0,0,35.6532842583,139.7925364067,4.2420000000,0,0,0,0,0,0,0,0,0,0
1728,1660893888.069167181,gps,0,0,35.6532841783,139.7925363617,4.2480000000,0,0,0,0,0,0,0,0,0,0
1729,1660893888.264592855,gps,0,0,35.6532841017,139.7925362983,4.2400000000,0,0,0,0,0,0,0,0,0,0
1730,1660893888.468276091,gps,0,0,35.6532840417,139.7925362683,4.2390000000,0,0,0,0,0,0,0,0,0,0
1731,1660893888.660223311,gps,0,0,35.6532840267,139.7925362467,4.2470000000,0,0,0,0,0,0,0,0,0,0
1732,1660893888.855501536,gps,0,0,35.6532840100,139.7925362050,4.2500000000,0,0,0,0,0,0,0,0,0,0
1733,1660893889.061495365,gps,0,0,35.6532840000,139.7925362567,4.2510000000,0,0,0,0,0,0,0,0,0,0
1734,1660893889.262354415,gps,0,0,35.6532839967,139.7925362567,4.2530000000,0,0,0,0,0,0,0,0,0,0
1735,1660893889.457430418,gps,0,0,35.6532839500,139.7925362100,4.2560000000,0,0,0,0,0,0,0,0,0,0
1736,1660893889.656694348,gps,0,0,35.6532838600,139.7925361600,4.2610000000,0,0,0,0,0,0,0,0,0,0
1737,1660893889.855522189,gps,0,0,35.6532838483,139.7925360733,4.2470000000,0,0,0,0,0,0,0,0,0,0
1738,1660893890.063621497,gps,0,0,35.6532838250,139.7925360700,4.2410000000,0,0,0,0,0,0,0,0,0,0
1739,1660893890.263841580,gps,0,0,35.6532837800,139.7925361083,4.2520000000,0,0,0,0,0,0,0,0,0,0
1740,1660893890.457324563,gps,0,0,35.6532837567,139.7925361267,4.2520000000,0,0,0,0,0,0,0,0,0,0
1741,1660893890.660283774,gps,0,0,35.6532837950,139.7925361533,4.2410000000,0,0,0,0,0,0,0,0,0,0
1742,1660893890.855584663,gps,0,0,35.6532837717,139.7925361817,4.2420000000,0,0,0,0,0,0,0,0,0,0
1743,1660893891.056397705,gps,0,0,35.6532838250,139.7925362083,4.2390000000,0,0,0,0,0,0,0,0,0,0
1744,1660893891.261629805,gps,0,0,35.6532838533,139.7925362517,4.2430000000,0,0,0,0,0,0,0,0,0,0
1745,1660893891.454389761,gps,0,0,35.6532839000,139.7925362917,4.2420000000,0,0,0,0,0,0,0,0,0,0
1746,1660893891.655382652,gps,0,0,35.6532839417,139.7925363200,4.2460000000,0,0,0,0,0,0,0,0,0,0
1747,1660893891.852624608,gps,0,0,35.6532839617,139.7925363600,4.2450000000,0,0,0,0,0,0,0,0,0,0
1748,1660893892.058353156,gps,0,0,35.6532839683,139.7925363617,4.2440000000,0,0,0,0,0,0,0,0,0,0
1749,1660893892.261303746,gps,0,0,35.6532839150,139.7925363883,4.2490000000,0,0,0,0,0,0,0,0,0,0
1750,1660893892.455281752,gps,0,0,35.6532839783,139.7925364050,4.2500000000,0,0,0,0,0,0,0,0,0,0
1751,1660893892.655355674,gps,0,0,35.6532840467,139.7925364200,4.2550000000,0,0,0,0,0,0,0,0,0,0
1752,1660893892.850447755,gps,0,0,35.6532840800,139.7925364017,4.2500000000,0,0,0,0,0,0,0,0,0,0
1753,1660893893.062610322,gps,0,0,35.6532841550,139.7925363617,4.2500000000,0,0,0,0,0,0,0,0,0,0
1754,1660893893.262150335,gps,0,0,35.6532843700,139.7925363467,4.2470000000,0,0,0,0,0,0,0,0,0,0
1755,1660893893.457591677,gps,0,0,35.6532845317,139.7925365033,4.2460000000,0,0,0,0,0,0,0,0,0,0
1756,1660893893.656812302,gps,0,0,35.6532848033,139.7925367183,4.2430000000,0,0,0,0,0,0,0,0,0,0
1757,1660893893.855268902,gps,0,0,35.6532850117,139.7925369133,4.2470000000,0,0,0,0,0,0,0,0,0,0
1758,1660893894.064198503,gps,0,0,35.6532855100,139.7925372817,4.2430000000,0,0,0,0,0,0,0,0,0,0
1759,1660893894.272397612,gps,0,0,35.6532861317,139.7925378450,4.2440000000,0,0,0,0,0,0,0,0,0,0
1760,1660893894.456461639,gps,0,0,35.6532868500,139.7925390700,4.2300000000,0,0,0,0,0,0,0,0,0,0
1761,1660893894.652699121,gps,0,0,35.6532874017,139.7925402983,4.2330000000,0,0,0,0,0,0,0,0,0,0
1762,1660893894.854722866,gps,0,0,35.6532876200,139.7925413317,4.2640000000,0,0,0,0,0,0,0,0,0,0
1763,1660893895.064523373,gps,0,0,35.6532881600,139.7925422967,4.2650000000,0,0,0,0,0,0,0,0,0,0
1764,1660893895.267602919,gps,0,0,35.6532891750,139.7925432667,4.2540000000,0,0,0,0,0,0,0,0,0,0
1765,1660893895.457689954,gps,0,0,35.6532899750,139.7925439083,4.2690000000,0,0,0,0,0,0,0,0,0,0
1766,1660893895.658379609,gps,0,0,35.6532909800,139.7925450183,4.2740000000,0,0,0,0,0,0,0,0,0,0
1767,1660893895.857548758,gps,0,0,35.6532919367,139.7925467550,4.2530000000,0,0,0,0,0,0,0,0,0,0
1768,1660893896.064217930,gps,0,0,35.6532928783,139.7925483117,4.2700000000,0,0,0,0,0,0,0,0,0,0
1769,1660893896.266056099,gps,0,0,35.6532937767,139.7925496183,4.2740000000,0,0,0,0,0,0,0,0,0,0
1770,1660893896.451698609,gps,0,0,35.6532947100,139.7925509617,4.2680000000,0,0,0,0,0,0,0,0,0,0
1771,1660893896.659063279,gps,0,0,35.6532959417,139.7925522800,4.2770000000,0,0,0,0,0,0,0,0,0,0
1772,1660893896.857588094,gps,0,0,35.6532967467,139.7925534833,4.3050000000,0,0,0,0,0,0,0,0,0,0
1773,1660893897.065057173,gps,0,0,35.6532978400,139.7925550733,4.3100000000,0,0,0,0,0,0,0,0,0,0
1774,1660893897.264345027,gps,0,0,35.6532991667,139.7925568300,4.2980000000,0,0,0,0,0,0,0,0,0,0
1775,1660893897.456268427,gps,0,0,35.6533001533,139.7925581700,4.3050000000,0,0,0,0,0,0,0,0,0,0
1776,1660893897.666412845,gps,0,0,35.6533011667,139.7925595433,4.2970000000,0,0,0,0,0,0,0,0,0,0
1777,1660893897.855279997,gps,0,0,35.6533023700,139.7925611467,4.2840000000,0,0,0,0,0,0,0,0,0,0
1778,1660893898.060411003,gps,0,0,35.6533035283,139.7925623217,4.2980000000,0,0,0,0,0,0,0,0,0,0
1779,1660893898.265335538,gps,0,0,35.6533044250,139.7925637067,4.3050000000,0,0,0,0,0,0,0,0,0,0
1780,1660893898.454988630,gps,0,0,35.6533054983,139.7925655067,4.2860000000,0,0,0,0,0,0,0,0,0,0
1781,1660893898.654990781,gps,0,0,35.6533065433,139.7925670267,4.3050000000,0,0,0,0,0,0,0,0,0,0
1782,1660893898.858365888,gps,0,0,35.6533074233,139.7925682700,4.3140000000,0,0,0,0,0,0,0,0,0,0
1783,1660893899.060555045,gps,0,0,35.6533087183,139.7925700750,4.2960000000,0,0,0,0,0,0,0,0,0,0
1784,1660893899.259799573,gps,0,0,35.6533102767,139.7925717383,4.2950000000,0,0,0,0,0,0,0,0,0,0
1785,1660893899.455580025,gps,0,0,35.6533111400,139.7925732417,4.3270000000,0,0,0,0,0,0,0,0,0,0
1786,1660893899.655589531,gps,0,0,35.6533122533,139.7925750183,4.3060000000,0,0,0,0,0,0,0,0,0,0
1787,1660893899.854689530,gps,0,0,35.6533134483,139.7925768267,4.3140000000,0,0,0,0,0,0,0,0,0,0
1788,1660893900.055347338,gps,0,0,35.6533144083,139.7925780833,4.3340000000,0,0,0,0,0,0,0,0,0,0
1789,1660893900.264212563,gps,0,0,35.6533154850,139.7925796200,4.3230000000,0,0,0,0,0,0,0,0,0,0
1790,1660893900.454706721,gps,0,0,35.6533169317,139.7925813650,4.3280000000,0,0,0,0,0,0,0,0,0,0
1791,1660893900.656365629,gps,0,0,35.6533178467,139.7925828033,4.3510000000,0,0,0,0,0,0,0,0,0,0
1792,1660893900.853429523,gps,0,0,35.6533189883,139.7925845800,4.3390000000,0,0,0,0,0,0,0,0,0,0
1793,1660893901.059614355,gps,0,0,35.6533202900,139.7925863033,4.3340000000,0,0,0,0,0,0,0,0,0,0
1794,1660893901.261469392,gps,0,0,35.6533211833,139.7925875483,4.3570000000,0,0,0,0,0,0,0,0,0,0
1795,1660893901.454699603,gps,0,0,35.6533221750,139.7925890983,4.3500000000,0,0,0,0,0,0,0,0,0,0
1796,1660893901.653339088,gps,0,0,35.6533236150,139.7925908083,4.3430000000,0,0,0,0,0,0,0,0,0,0
1797,1660893901.849006019,gps,0,0,35.6533245967,139.7925924483,4.3790000000,0,0,0,0,0,0,0,0,0,0
1798,1660893902.060321082,gps,0,0,35.6533254483,139.7925942267,4.3770000000,0,0,0,0,0,0,0,0,0,0
1799,1660893902.264592151,gps,0,0,35.6533265983,139.7925962150,4.3660000000,0,0,0,0,0,0,0,0,0,0
1800,1660893902.456214298,gps,0,0,35.6533275383,139.7925975133,4.3850000000,0,0,0,0,0,0,0,0,0,0
1801,1660893902.655578032,gps,0,0,35.6533283833,139.7925989317,4.3840000000,0,0,0,0,0,0,0,0,0,0
1802,1660893902.854485419,gps,0,0,35.6533297317,139.7926006317,4.3620000000,0,0,0,0,0,0,0,0,0,0
1803,1660893903.062572023,gps,0,0,35.6533307733,139.7926021250,4.3850000000,0,0,0,0,0,0,0,0,0,0
1804,1660893903.263542614,gps,0,0,35.6533316550,139.7926037650,4.4070000000,0,0,0,0,0,0,0,0,0,0
1805,1660893903.456281798,gps,0,0,35.6533327650,139.7926057667,4.3900000000,0,0,0,0,0,0,0,0,0,0
1806,1660893903.649633013,gps,0,0,35.6533338967,139.7926073300,4.4140000000,0,0,0,0,0,0,0,0,0,0
1807,1660893903.855060112,gps,0,0,35.6533347383,139.7926088817,4.4160000000,0,0,0,0,0,0,0,0,0,0
1808,1660893904.059545251,gps,0,0,35.6533360300,139.7926105017,4.3970000000,0,0,0,0,0,0,0,0,0,0
1809,1660893904.264461068,gps,0,0,35.6533374767,139.7926117983,4.4130000000,0,0,0,0,0,0,0,0,0,0
1810,1660893904.457211534,gps,0,0,35.6533384017,139.7926134017,4.4370000000,0,0,0,0,0,0,0,0,0,0
1811,1660893904.656439055,gps,0,0,35.6533396300,139.7926153983,4.3920000000,0,0,0,0,0,0,0,0,0,0
1812,1660893904.859317149,gps,0,0,35.6533405317,139.7926171733,4.4100000000,0,0,0,0,0,0,0,0,0,0
1813,1660893905.066567825,gps,0,0,35.6533412667,139.7926183567,4.4290000000,0,0,0,0,0,0,0,0,0,0
1814,1660893905.262056987,gps,0,0,35.6533424250,139.7926200067,4.4040000000,0,0,0,0,0,0,0,0,0,0
1815,1660893905.449491895,gps,0,0,35.6533439783,139.7926216133,4.4150000000,0,0,0,0,0,0,0,0,0,0
1816,1660893905.657320208,gps,0,0,35.6533449400,139.7926231317,4.4460000000,0,0,0,0,0,0,0,0,0,0
1817,1660893905.856395401,gps,0,0,35.6533459250,139.7926250217,4.4210000000,0,0,0,0,0,0,0,0,0,0
1818,1660893906.067080152,gps,0,0,35.6533470133,139.7926269150,4.4190000000,0,0,0,0,0,0,0,0,0,0
1819,1660893906.264999155,gps,0,0,35.6533477817,139.7926283950,4.4400000000,0,0,0,0,0,0,0,0,0,0
1820,1660893906.457181910,gps,0,0,35.6533487400,139.7926300267,4.4380000000,0,0,0,0,0,0,0,0,0,0
1821,1660893906.668404611,gps,0,0,35.6533502583,139.7926319067,4.4190000000,0,0,0,0,0,0,0,0,0,0
1822,1660893906.855537347,gps,0,0,35.6533512550,139.7926333133,4.4550000000,0,0,0,0,0,0,0,0,0,0
1823,1660893907.062141223,gps,0,0,35.6533522300,139.7926349533,4.4450000000,0,0,0,0,0,0,0,0,0,0
1824,1660893907.257455637,gps,0,0,35.6533534183,139.7926366200,4.4310000000,0,0,0,0,0,0,0,0,0,0
1825,1660893907.456330576,gps,0,0,35.6533543967,139.7926378883,4.4530000000,0,0,0,0,0,0,0,0,0,0
1826,1660893907.656172001,gps,0,0,35.6533553783,139.7926392167,4.4570000000,0,0,0,0,0,0,0,0,0,0
1827,1660893907.857230478,gps,0,0,35.6533568817,139.7926410283,4.4180000000,0,0,0,0,0,0,0,0,0,0
1828,1660893908.063189247,gps,0,0,35.6533582117,139.7926423533,4.4330000000,0,0,0,0,0,0,0,0,0,0
1829,1660893908.263316480,gps,0,0,35.6533591817,139.7926440517,4.4390000000,0,0,0,0,0,0,0,0,0,0
1830,1660893908.457534175,gps,0,0,35.6533603800,139.7926462067,4.4140000000,0,0,0,0,0,0,0,0,0,0
1831,1660893908.657267672,gps,0,0,35.6533612750,139.7926477483,4.4540000000,0,0,0,0,0,0,0,0,0,0
1832,1660893908.855438452,gps,0,0,35.6533622017,139.7926493017,4.4450000000,0,0,0,0,0,0,0,0,0,0
1833,1660893909.056710699,gps,0,0,35.6533634217,139.7926509617,4.4040000000,0,0,0,0,0,0,0,0,0,0
1834,1660893909.261429482,gps,0,0,35.6533644067,139.7926523667,4.4500000000,0,0,0,0,0,0,0,0,0,0
1835,1660893909.455453106,gps,0,0,35.6533653250,139.7926539450,4.4590000000,0,0,0,0,0,0,0,0,0,0
1836,1660893909.656476022,gps,0,0,35.6533666217,139.7926558167,4.4260000000,0,0,0,0,0,0,0,0,0,0
1837,1660893909.855191221,gps,0,0,35.6533676600,139.7926574617,4.4380000000,0,0,0,0,0,0,0,0,0,0
1838,1660893910.059288426,gps,0,0,35.6533685367,139.7926588317,4.4490000000,0,0,0,0,0,0,0,0,0,0
1839,1660893910.265196451,gps,0,0,35.6533700250,139.7926606700,4.4150000000,0,0,0,0,0,0,0,0,0,0
1840,1660893910.457099317,gps,0,0,35.6533715767,139.7926623550,4.4280000000,0,0,0,0,0,0,0,0,0,0
1841,1660893910.655426161,gps,0,0,35.6533725967,139.7926641350,4.4480000000,0,0,0,0,0,0,0,0,0,0
1842,1660893910.849377334,gps,0,0,35.6533738100,139.7926661100,4.4250000000,0,0,0,0,0,0,0,0,0,0
1843,1660893911.062360165,gps,0,0,35.6533748117,139.7926677867,4.4330000000,0,0,0,0,0,0,0,0,0,0
1844,1660893911.262027990,gps,0,0,35.6533756483,139.7926689867,4.4550000000,0,0,0,0,0,0,0,0,0,0
1845,1660893911.457643455,gps,0,0,35.6533767917,139.7926706017,4.4210000000,0,0,0,0,0,0,0,0,0,0
1846,1660893911.655509978,gps,0,0,35.6533783867,139.7926722300,4.4150000000,0,0,0,0,0,0,0,0,0,0
1847,1660893911.856461584,gps,0,0,35.6533794067,139.7926737417,4.4370000000,0,0,0,0,0,0,0,0,0,0
1848,1660893912.063258963,gps,0,0,35.6533803567,139.7926754533,4.4350000000,0,0,0,0,0,0,0,0,0,0
1849,1660893912.260462139,gps,0,0,35.6533814550,139.7926772983,4.4160000000,0,0,0,0,0,0,0,0,0,0
1850,1660893912.454373649,gps,0,0,35.6533823767,139.7926785533,4.4370000000,0,0,0,0,0,0,0,0,0,0
1851,1660893912.649569615,gps,0,0,35.6533832267,139.7926800333,4.4330000000,0,0,0,0,0,0,0,0,0,0
1852,1660893912.853520661,gps,0,0,35.6533844200,139.7926817317,4.4230000000,0,0,0,0,0,0,0,0,0,0
1853,1660893913.059565327,gps,0,0,35.6533852400,139.7926834317,4.4440000000,0,0,0,0,0,0,0,0,0,0
1854,1660893913.256576889,gps,0,0,35.6533858933,139.7926853250,4.4630000000,0,0,0,0,0,0,0,0,0,0
1855,1660893913.456192306,gps,0,0,35.6533869367,139.7926873283,4.4490000000,0,0,0,0,0,0,0,0,0,0
1856,1660893913.654628296,gps,0,0,35.6533879583,139.7926886683,4.4560000000,0,0,0,0,0,0,0,0,0,0
1857,1660893913.853181004,gps,0,0,35.6533889367,139.7926900250,4.4510000000,0,0,0,0,0,0,0,0,0,0
1858,1660893914.059276171,gps,0,0,35.6533902483,139.7926914967,4.4270000000,0,0,0,0,0,0,0,0,0,0
1859,1660893914.268559001,gps,0,0,35.6533912167,139.7926928650,4.4700000000,0,0,0,0,0,0,0,0,0,0
1860,1660893914.449584292,gps,0,0,35.6533920450,139.7926946733,4.4690000000,0,0,0,0,0,0,0,0,0,0
1861,1660893914.655487731,gps,0,0,35.6533928500,139.7926965967,4.4440000000,0,0,0,0,0,0,0,0,0,0
1862,1660893914.855197943,gps,0,0,35.6533935133,139.7926979300,4.4630000000,0,0,0,0,0,0,0,0,0,0
1863,1660893915.062011877,gps,0,0,35.6533943733,139.7926993233,4.4530000000,0,0,0,0,0,0,0,0,0,0
1864,1660893915.255624346,gps,0,0,35.6533957600,139.7927008717,4.4190000000,0,0,0,0,0,0,0,0,0,0
1865,1660893915.455648569,gps,0,0,35.6533972467,139.7927022583,4.4450000000,0,0,0,0,0,0,0,0,0,0
1866,1660893915.658274834,gps,0,0,35.6533982333,139.7927040300,4.4680000000,0,0,0,0,0,0,0,0,0,0
1867,1660893915.855062274,gps,0,0,35.6533991450,139.7927060183,4.4550000000,0,0,0,0,0,0,0,0,0,0
1868,1660893916.059468538,gps,0,0,35.6534000933,139.7927078417,4.4640000000,0,0,0,0,0,0,0,0,0,0
1869,1660893916.255218382,gps,0,0,35.6534007950,139.7927091767,4.4890000000,0,0,0,0,0,0,0,0,0,0
1870,1660893916.454615063,gps,0,0,35.6534018183,139.7927108617,4.4740000000,0,0,0,0,0,0,0,0,0,0
1871,1660893916.653524539,gps,0,0,35.6534032617,139.7927123883,4.4800000000,0,0,0,0,0,0,0,0,0,0
1872,1660893916.853174852,gps,0,0,35.6534041733,139.7927140800,4.4990000000,0,0,0,0,0,0,0,0,0,0
1873,1660893917.059262780,gps,0,0,35.6534053267,139.7927158467,4.4930000000,0,0,0,0,0,0,0,0,0,0
1874,1660893917.259383750,gps,0,0,35.6534066650,139.7927177317,4.4670000000,0,0,0,0,0,0,0,0,0,0
1875,1660893917.455191266,gps,0,0,35.6534077433,139.7927192100,4.4800000000,0,0,0,0,0,0,0,0,0,0
1876,1660893917.654640762,gps,0,0,35.6534087717,139.7927207750,4.4890000000,0,0,0,0,0,0,0,0,0,0
1877,1660893917.852472589,gps,0,0,35.6534101667,139.7927227283,4.5000000000,0,0,0,0,0,0,0,0,0,0
1878,1660893918.055454401,gps,0,0,35.6534109433,139.7927243517,4.5220000000,0,0,0,0,0,0,0,0,0,0
1879,1660893918.269582922,gps,0,0,35.6534118783,139.7927263567,4.4970000000,0,0,0,0,0,0,0,0,0,0
1880,1660893918.455574004,gps,0,0,35.6534128617,139.7927281967,4.5000000000,0,0,0,0,0,0,0,0,0,0
1881,1660893918.657128264,gps,0,0,35.6534135700,139.7927294450,4.5240000000,0,0,0,0,0,0,0,0,0,0
1882,1660893918.855373791,gps,0,0,35.6534145250,139.7927311183,4.5090000000,0,0,0,0,0,0,0,0,0,0
1883,1660893919.058512657,gps,0,0,35.6534161050,139.7927330367,4.4990000000,0,0,0,0,0,0,0,0,0,0
1884,1660893919.263325516,gps,0,0,35.6534170683,139.7927346683,4.5420000000,0,0,0,0,0,0,0,0,0,0
1885,1660893919.453047609,gps,0,0,35.6534179917,139.7927364950,4.5270000000,0,0,0,0,0,0,0,0,0,0
1886,1660893919.652324955,gps,0,0,35.6534190733,139.7927386983,4.5080000000,0,0,0,0,0,0,0,0,0,0
1887,1660893919.847320644,gps,0,0,35.6534199767,139.7927401450,4.5320000000,0,0,0,0,0,0,0,0,0,0
1888,1660893920.058458977,gps,0,0,35.6534210567,139.7927416417,4.5190000000,0,0,0,0,0,0,0,0,0,0
1889,1660893920.254573559,gps,0,0,35.6534226800,139.7927433617,4.5030000000,0,0,0,0,0,0,0,0,0,0
1890,1660893920.455175026,gps,0,0,35.6534238950,139.7927448433,4.5350000000,0,0,0,0,0,0,0,0,0,0
1891,1660893920.654896481,gps,0,0,35.6534248033,139.7927466417,4.5400000000,0,0,0,0,0,0,0,0,0,0
1892,1660893920.852389917,gps,0,0,35.6534260450,139.7927487900,4.5180000000,0,0,0,0,0,0,0,0,0,0
1893,1660893921.059546212,gps,0,0,35.6534271967,139.7927504933,4.5350000000,0,0,0,0,0,0,0,0,0,0
1894,1660893921.254297440,gps,0,0,35.6534279900,139.7927518950,4.5490000000,0,0,0,0,0,0,0,0,0,0
1895,1660893921.453397685,gps,0,0,35.6534294767,139.7927539383,4.5060000000,0,0,0,0,0,0,0,0,0,0
1896,1660893921.655310273,gps,0,0,35.6534307333,139.7927554900,4.5500000000,0,0,0,0,0,0,0,0,0,0
1897,1660893921.852504183,gps,0,0,35.6534315117,139.7927569367,4.5520000000,0,0,0,0,0,0,0,0,0,0
1898,1660893922.057358666,gps,0,0,35.6534326050,139.7927588850,4.5240000000,0,0,0,0,0,0,0,0,0,0
1899,1660893922.262041181,gps,0,0,35.6534338317,139.7927606350,4.5340000000,0,0,0,0,0,0,0,0,0,0
1900,1660893922.453563372,gps,0,0,35.6534347833,139.7927618900,4.5460000000,0,0,0,0,0,0,0,0,0,0
1901,1660893922.653606748,gps,0,0,35.6534360967,139.7927634500,4.5200000000,0,0,0,0,0,0,0,0,0,0
1902,1660893922.852528881,gps,0,0,35.6534376767,139.7927647000,4.5340000000,0,0,0,0,0,0,0,0,0,0
1903,1660893923.059262206,gps,0,0,35.6534385600,139.7927662383,4.5660000000,0,0,0,0,0,0,0,0,0,0
1904,1660893923.253406423,gps,0,0,35.6534395883,139.7927679433,4.5570000000,0,0,0,0,0,0,0,0,0,0
1905,1660893923.458406437,gps,0,0,35.6534407383,139.7927698450,4.5520000000,0,0,0,0,0,0,0,0,0,0
1906,1660893923.654837463,gps,0,0,35.6534418983,139.7927712850,4.5750000000,0,0,0,0,0,0,0,0,0,0
1907,1660893923.854263301,gps,0,0,35.6534430600,139.7927727617,4.5620000000,0,0,0,0,0,0,0,0,0,0
1908,1660893924.063358433,gps,0,0,35.6534449717,139.7927744017,4.5570000000,0,0,0,0,0,0,0,0,0,0
1909,1660893924.265062789,gps,0,0,35.6534460233,139.7927760600,4.5910000000,0,0,0,0,0,0,0,0,0,0
1910,1660893924.456134053,gps,0,0,35.6534467633,139.7927777433,4.5850000000,0,0,0,0,0,0,0,0,0,0
1911,1660893924.657035389,gps,0,0,35.6534476150,139.7927796133,4.5720000000,0,0,0,0,0,0,0,0,0,0
1912,1660893924.853305038,gps,0,0,35.6534485467,139.7927807550,4.5980000000,0,0,0,0,0,0,0,0,0,0
1913,1660893925.059967125,gps,0,0,35.6534497833,139.7927819733,4.5920000000,0,0,0,0,0,0,0,0,0,0
1914,1660893925.253600450,gps,0,0,35.6534512833,139.7927832900,4.5760000000,0,0,0,0,0,0,0,0,0,0
1915,1660893925.454592258,gps,0,0,35.6534524967,139.7927844667,4.6020000000,0,0,0,0,0,0,0,0,0,0
1916,1660893925.654417986,gps,0,0,35.6534534200,139.7927860883,4.6000000000,0,0,0,0,0,0,0,0,0,0
1917,1660893925.853492816,gps,0,0,35.6534543783,139.7927880833,4.5780000000,0,0,0,0,0,0,0,0,0,0
1918,1660893926.057358545,gps,0,0,35.6534551450,139.7927895150,4.5890000000,0,0,0,0,0,0,0,0,0,0
1919,1660893926.262238850,gps,0,0,35.6534560700,139.7927910550,4.6090000000,0,0,0,0,0,0,0,0,0,0
1920,1660893926.455113876,gps,0,0,35.6534574633,139.7927927017,4.5790000000,0,0,0,0,0,0,0,0,0,0
1921,1660893926.654381369,gps,0,0,35.6534588833,139.7927940750,4.5830000000,0,0,0,0,0,0,0,0,0,0
1922,1660893926.853235717,gps,0,0,35.6534597683,139.7927958183,4.6010000000,0,0,0,0,0,0,0,0,0,0
1923,1660893927.053621184,gps,0,0,35.6534608917,139.7927979083,4.5730000000,0,0,0,0,0,0,0,0,0,0
1924,1660893927.266857222,gps,0,0,35.6534620900,139.7927999233,4.5910000000,0,0,0,0,0,0,0,0,0,0
1925,1660893927.452224270,gps,0,0,35.6534628467,139.7928012650,4.6120000000,0,0,0,0,0,0,0,0,0,0
1926,1660893927.653363348,gps,0,0,35.6534640983,139.7928028467,4.5820000000,0,0,0,0,0,0,0,0,0,0
1927,1660893927.851823361,gps,0,0,35.6534658783,139.7928043200,4.5780000000,0,0,0,0,0,0,0,0,0,0
1928,1660893928.057117439,gps,0,0,35.6534670550,139.7928057900,4.6080000000,0,0,0,0,0,0,0,0,0,0
1929,1660893928.265042597,gps,0,0,35.6534680833,139.7928074983,4.5980000000,0,0,0,0,0,0,0,0,0,0
1930,1660893928.453402646,gps,0,0,35.6534692567,139.7928096000,4.5720000000,0,0,0,0,0,0,0,0,0,0
1931,1660893928.652228574,gps,0,0,35.6534701750,139.7928109850,4.6110000000,0,0,0,0,0,0,0,0,0,0
1932,1660893928.846847394,gps,0,0,35.6534714050,139.7928125133,4.5880000000,0,0,0,0,0,0,0,0,0,0
1933,1660893929.059035987,gps,0,0,35.6534731133,139.7928142000,4.5710000000,0,0,0,0,0,0,0,0,0,0
1934,1660893929.258328650,gps,0,0,35.6534741767,139.7928155250,4.6100000000,0,0,0,0,0,0,0,0,0,0
1935,1660893929.452306672,gps,0,0,35.6534750850,139.7928171150,4.6080000000,0,0,0,0,0,0,0,0,0,0
1936,1660893929.652969919,gps,0,0,35.6534760933,139.7928191000,4.5820000000,0,0,0,0,0,0,0,0,0,0
1937,1660893929.851268925,gps,0,0,35.6534769500,139.7928203533,4.6110000000,0,0,0,0,0,0,0,0,0,0
1938,1660893930.059916623,gps,0,0,35.6534780500,139.7928218133,4.5990000000,0,0,0,0,0,0,0,0,0,0
1939,1660893930.252323802,gps,0,0,35.6534797483,139.7928233883,4.5890000000,0,0,0,0,0,0,0,0,0,0
1940,1660893930.451516525,gps,0,0,35.6534810983,139.7928244667,4.6090000000,0,0,0,0,0,0,0,0,0,0
1941,1660893930.646197753,gps,0,0,35.6534821850,139.7928260000,4.6060000000,0,0,0,0,0,0,0,0,0,0
1942,1660893930.849405079,gps,0,0,35.6534829150,139.7928277767,4.5840000000,0,0,0,0,0,0,0,0,0,0
1943,1660893931.054869441,gps,0,0,35.6534834617,139.7928291617,4.5960000000,0,0,0,0,0,0,0,0,0,0
1944,1660893931.253133248,gps,0,0,35.6534843583,139.7928303300,4.6040000000,0,0,0,0,0,0,0,0,0,0
1945,1660893931.454365139,gps,0,0,35.6534858800,139.7928315750,4.5750000000,0,0,0,0,0,0,0,0,0,0
1946,1660893931.653252334,gps,0,0,35.6534878750,139.7928329133,4.5830000000,0,0,0,0,0,0,0,0,0,0
1947,1660893931.854373902,gps,0,0,35.6534890650,139.7928344900,4.6100000000,0,0,0,0,0,0,0,0,0,0
1948,1660893932.059185535,gps,0,0,35.6534900550,139.7928362900,4.6080000000,0,0,0,0,0,0,0,0,0,0
1949,1660893932.255103626,gps,0,0,35.6534913217,139.7928382950,4.6040000000,0,0,0,0,0,0,0,0,0,0
1950,1660893932.448524595,gps,0,0,35.6534921683,139.7928393600,4.6340000000,0,0,0,0,0,0,0,0,0,0
1951,1660893932.654860219,gps,0,0,35.6534931233,139.7928404950,4.6190000000,0,0,0,0,0,0,0,0,0,0
1952,1660893932.853342227,gps,0,0,35.6534945717,139.7928417033,4.5950000000,0,0,0,0,0,0,0,0,0,0
1953,1660893933.060246928,gps,0,0,35.6534955483,139.7928429083,4.6130000000,0,0,0,0,0,0,0,0,0,0
1954,1660893933.260177768,gps,0,0,35.6534963833,139.7928446050,4.6100000000,0,0,0,0,0,0,0,0,0,0
1955,1660893933.454355665,gps,0,0,35.6534973617,139.7928463833,4.5940000000,0,0,0,0,0,0,0,0,0,0
1956,1660893933.655196005,gps,0,0,35.6534984817,139.7928477017,4.6120000000,0,0,0,0,0,0,0,0,0,0
1957,1660893933.854285914,gps,0,0,35.6534996333,139.7928490533,4.6240000000,0,0,0,0,0,0,0,0,0,0
1958,1660893934.058789738,gps,0,0,35.6535011417,139.7928506917,4.6140000000,0,0,0,0,0,0,0,0,0,0
1959,1660893934.255059932,gps,0,0,35.6535023283,139.7928522233,4.6470000000,0,0,0,0,0,0,0,0,0,0
1960,1660893934.454337898,gps,0,0,35.6535031300,139.7928537183,4.6650000000,0,0,0,0,0,0,0,0,0,0
1961,1660893934.653316668,gps,0,0,35.6535042717,139.7928556850,4.6400000000,0,0,0,0,0,0,0,0,0,0
1962,1660893934.855806976,gps,0,0,35.6535056217,139.7928574283,4.6470000000,0,0,0,0,0,0,0,0,0,0
1963,1660893935.061267664,gps,0,0,35.6535068867,139.7928590533,4.6650000000,0,0,0,0,0,0,0,0,0,0
1964,1660893935.262043428,gps,0,0,35.6535085383,139.7928608167,4.6480000000,0,0,0,0,0,0,0,0,0,0
1965,1660893935.456474702,gps,0,0,35.6535100300,139.7928625417,4.6710000000,0,0,0,0,0,0,0,0,0,0
1966,1660893935.658346867,gps,0,0,35.6535108933,139.7928642333,4.6840000000,0,0,0,0,0,0,0,0,0,0
1967,1660893935.854896639,gps,0,0,35.6535118533,139.7928660533,4.6610000000,0,0,0,0,0,0,0,0,0,0
1968,1660893936.056186141,gps,0,0,35.6535127817,139.7928674683,4.6580000000,0,0,0,0,0,0,0,0,0,0
1969,1660893936.261786227,gps,0,0,35.6535137183,139.7928687167,4.6880000000,0,0,0,0,0,0,0,0,0,0
1970,1660893936.454485437,gps,0,0,35.6535152133,139.7928704150,4.6600000000,0,0,0,0,0,0,0,0,0,0
1971,1660893936.656268579,gps,0,0,35.6535167383,139.7928719083,4.6670000000,0,0,0,0,0,0,0,0,0,0
1972,1660893936.853551458,gps,0,0,35.6535176733,139.7928734783,4.6920000000,0,0,0,0,0,0,0,0,0,0
1973,1660893937.059231008,gps,0,0,35.6535186800,139.7928756567,4.6720000000,0,0,0,0,0,0,0,0,0,0
1974,1660893937.256134959,gps,0,0,35.6535194917,139.7928775933,4.6790000000,0,0,0,0,0,0,0,0,0,0
1975,1660893937.458683144,gps,0,0,35.6535204133,139.7928791667,4.7060000000,0,0,0,0,0,0,0,0,0,0
1976,1660893937.654465502,gps,0,0,35.6535219017,139.7928810183,4.6690000000,0,0,0,0,0,0,0,0,0,0
1977,1660893937.849070448,gps,0,0,35.6535232950,139.7928823133,4.6510000000,0,0,0,0,0,0,0,0,0,0
1978,1660893938.060100252,gps,0,0,35.6535241233,139.7928839550,4.6920000000,0,0,0,0,0,0,0,0,0,0
1979,1660893938.260232668,gps,0,0,35.6535252367,139.7928859200,4.6590000000,0,0,0,0,0,0,0,0,0,0
1980,1660893938.455170208,gps,0,0,35.6535262767,139.7928878433,4.6570000000,0,0,0,0,0,0,0,0,0,0
1981,1660893938.654366669,gps,0,0,35.6535272467,139.7928890817,4.6800000000,0,0,0,0,0,0,0,0,0,0
1982,1660893938.853092739,gps,0,0,35.6535284900,139.7928905783,4.6610000000,0,0,0,0,0,0,0,0,0,0
1983,1660893939.060061239,gps,0,0,35.6535301367,139.7928920433,4.6450000000,0,0,0,0,0,0,0,0,0,0
1984,1660893939.259408151,gps,0,0,35.6535312400,139.7928936783,4.6850000000,0,0,0,0,0,0,0,0,0,0
1985,1660893939.453118617,gps,0,0,35.6535321517,139.7928954083,4.6890000000,0,0,0,0,0,0,0,0,0,0
1986,1660893939.648947427,gps,0,0,35.6535331133,139.7928975233,4.6710000000,0,0,0,0,0,0,0,0,0,0
1987,1660893939.852892247,gps,0,0,35.6535340400,139.7928988300,4.6990000000,0,0,0,0,0,0,0,0,0,0
1988,1660893940.058753832,gps,0,0,35.6535353450,139.7929002667,4.6880000000,0,0,0,0,0,0,0,0,0,0
1989,1660893940.266118202,gps,0,0,35.6535370100,139.7929019867,4.6570000000,0,0,0,0,0,0,0,0,0,0
1990,1660893940.456279094,gps,0,0,35.6535383483,139.7929033767,4.6820000000,0,0,0,0,0,0,0,0,0,0
1991,1660893940.657190050,gps,0,0,35.6535390217,139.7929050900,4.6950000000,0,0,0,0,0,0,0,0,0,0
1992,1660893940.857070811,gps,0,0,35.6535398933,139.7929070767,4.6670000000,0,0,0,0,0,0,0,0,0,0
1993,1660893941.063344393,gps,0,0,35.6535407133,139.7929087083,4.6910000000,0,0,0,0,0,0,0,0,0,0
1994,1660893941.261232796,gps,0,0,35.6535418733,139.7929101867,4.6970000000,0,0,0,0,0,0,0,0,0,0
1995,1660893941.452248188,gps,0,0,35.6535435417,139.7929119500,4.6660000000,0,0,0,0,0,0,0,0,0,0
1996,1660893941.654172636,gps,0,0,35.6535450600,139.7929133683,4.6890000000,0,0,0,0,0,0,0,0,0,0
1997,1660893941.852157288,gps,0,0,35.6535459133,139.7929150717,4.7030000000,0,0,0,0,0,0,0,0,0,0
1998,1660893942.059954236,gps,0,0,35.6535467917,139.7929169683,4.6710000000,0,0,0,0,0,0,0,0,0,0
1999,1660893942.261191587,gps,0,0,35.6535476767,139.7929185417,4.6970000000,0,0,0,0,0,0,0,0,0,0
2000,1660893942.454739512,gps,0,0,35.6535486917,139.7929200617,4.7030000000,0,0,0,0,0,0,0,0,0,0
2001,1660893942.656915051,gps,0,0,35.6535502483,139.7929217500,4.6590000000,0,0,0,0,0,0,0,0,0,0
2002,1660893942.856932165,gps,0,0,35.6535515817,139.7929228800,4.6810000000,0,0,0,0,0,0,0,0,0,0
2003,1660893943.061198673,gps,0,0,35.6535524450,139.7929245217,4.6820000000,0,0,0,0,0,0,0,0,0,0
2004,1660893943.249770374,gps,0,0,35.6535534450,139.7929263867,4.6630000000,0,0,0,0,0,0,0,0,0,0
2005,1660893943.457298909,gps,0,0,35.6535542000,139.7929281150,4.6700000000,0,0,0,0,0,0,0,0,0,0
2006,1660893943.656773762,gps,0,0,35.6535551333,139.7929293950,4.6940000000,0,0,0,0,0,0,0,0,0,0
2007,1660893943.860038367,gps,0,0,35.6535566367,139.7929309333,4.6670000000,0,0,0,0,0,0,0,0,0,0
2008,1660893944.064730140,gps,0,0,35.6535583650,139.7929322350,4.6550000000,0,0,0,0,0,0,0,0,0,0
2009,1660893944.272221075,gps,0,0,35.6535592750,139.7929338417,4.6970000000,0,0,0,0,0,0,0,0,0,0
2010,1660893944.458991863,gps,0,0,35.6535603300,139.7929357450,4.6730000000,0,0,0,0,0,0,0,0,0,0
2011,1660893944.661853639,gps,0,0,35.6535610667,139.7929373317,4.6720000000,0,0,0,0,0,0,0,0,0,0
2012,1660893944.858981698,gps,0,0,35.6535620800,139.7929385167,4.6920000000,0,0,0,0,0,0,0,0,0,0
2013,1660893945.058438637,gps,0,0,35.6535634667,139.7929398683,4.6640000000,0,0,0,0,0,0,0,0,0,0
2014,1660893945.256159953,gps,0,0,35.6535653883,139.7929412783,4.6440000000,0,0,0,0,0,0,0,0,0,0
2015,1660893945.454816176,gps,0,0,35.6535668750,139.7929428583,4.6790000000,0,0,0,0,0,0,0,0,0,0
2016,1660893945.656201443,gps,0,0,35.6535682783,139.7929447600,4.6770000000,0,0,0,0,0,0,0,0,0,0
2017,1660893945.854275165,gps,0,0,35.6535695950,139.7929468067,4.6710000000,0,0,0,0,0,0,0,0,0,0
2018,1660893946.059878819,gps,0,0,35.6535704883,139.7929481433,4.6920000000,0,0,0,0,0,0,0,0,0,0
2019,1660893946.266229913,gps,0,0,35.6535713367,139.7929494700,4.7010000000,0,0,0,0,0,0,0,0,0,0
2020,1660893946.458226646,gps,0,0,35.6535728650,139.7929510350,4.6770000000,0,0,0,0,0,0,0,0,0,0
2021,1660893946.655774613,gps,0,0,35.6535741617,139.7929524650,4.6910000000,0,0,0,0,0,0,0,0,0,0
2022,1660893946.851173480,gps,0,0,35.6535750600,139.7929541050,4.6960000000,0,0,0,0,0,0,0,0,0,0
2023,1660893947.062174910,gps,0,0,35.6535763117,139.7929561050,4.6810000000,0,0,0,0,0,0,0,0,0,0
2024,1660893947.254749729,gps,0,0,35.6535776800,139.7929576683,4.6860000000,0,0,0,0,0,0,0,0,0,0
2025,1660893947.457095564,gps,0,0,35.6535784250,139.7929587817,4.7050000000,0,0,0,0,0,0,0,0,0,0
2026,1660893947.655417650,gps,0,0,35.6535796650,139.7929604850,4.6770000000,0,0,0,0,0,0,0,0,0,0
2027,1660893947.853399509,gps,0,0,35.6535808983,139.7929618033,4.6920000000,0,0,0,0,0,0,0,0,0,0
2028,1660893948.062122863,gps,0,0,35.6535816867,139.7929635183,4.7130000000,0,0,0,0,0,0,0,0,0,0
2029,1660893948.255375743,gps,0,0,35.6535826683,139.7929653933,4.6940000000,0,0,0,0,0,0,0,0,0,0
2030,1660893948.454995789,gps,0,0,35.6535836067,139.7929669183,4.6970000000,0,0,0,0,0,0,0,0,0,0
2031,1660893948.649832978,gps,0,0,35.6535846333,139.7929682800,4.7060000000,0,0,0,0,0,0,0,0,0,0
2032,1660893948.854448685,gps,0,0,35.6535860217,139.7929699317,4.6800000000,0,0,0,0,0,0,0,0,0,0
2033,1660893949.060031149,gps,0,0,35.6535874950,139.7929714800,4.6990000000,0,0,0,0,0,0,0,0,0,0
2034,1660893949.256271869,gps,0,0,35.6535885100,139.7929731567,4.7210000000,0,0,0,0,0,0,0,0,0,0
2035,1660893949.457092944,gps,0,0,35.6535896433,139.7929748350,4.7040000000,0,0,0,0,0,0,0,0,0,0
2036,1660893949.656175929,gps,0,0,35.6535907767,139.7929766433,4.6900000000,0,0,0,0,0,0,0,0,0,0
2037,1660893949.858012649,gps,0,0,35.6535916600,139.7929776967,4.7100000000,0,0,0,0,0,0,0,0,0,0
2038,1660893950.062899944,gps,0,0,35.6535928133,139.7929790367,4.7020000000,0,0,0,0,0,0,0,0,0,0
2039,1660893950.256129243,gps,0,0,35.6535944883,139.7929805200,4.6990000000,0,0,0,0,0,0,0,0,0,0
2040,1660893950.450099086,gps,0,0,35.6535957367,139.7929821067,4.7340000000,0,0,0,0,0,0,0,0,0,0
2041,1660893950.658649560,gps,0,0,35.6535969433,139.7929838067,4.7270000000,0,0,0,0,0,0,0,0,0,0
2042,1660893950.854863050,gps,0,0,35.6535981117,139.7929855000,4.7170000000,0,0,0,0,0,0,0,0,0,0
2043,1660893951.063055256,gps,0,0,35.6535990417,139.7929867417,4.7410000000,0,0,0,0,0,0,0,0,0,0
2044,1660893951.261296736,gps,0,0,35.6536001533,139.7929879667,4.7530000000,0,0,0,0,0,0,0,0,0,0
2045,1660893951.455135020,gps,0,0,35.6536019033,139.7929896017,4.7140000000,0,0,0,0,0,0,0,0,0,0
2046,1660893951.655701071,gps,0,0,35.6536036133,139.7929908883,4.7380000000,0,0,0,0,0,0,0,0,0,0
2047,1660893951.852920740,gps,0,0,35.6536047750,139.7929925917,4.7430000000,0,0,0,0,0,0,0,0,0,0
2048,1660893952.057375993,gps,0,0,35.6536060283,139.7929944067,4.7310000000,0,0,0,0,0,0,0,0,0,0
2049,1660893952.247166921,gps,0,0,35.6536070550,139.7929958683,4.7380000000,0,0,0,0,0,0,0,0,0,0
2050,1660893952.454258689,gps,0,0,35.6536079100,139.7929970567,4.7610000000,0,0,0,0,0,0,0,0,0,0
2051,1660893952.662241835,gps,0,0,35.6536095633,139.7929987983,4.7310000000,0,0,0,0,0,0,0,0,0,0
2052,1660893952.850287933,gps,0,0,35.6536112683,139.7930004967,4.7360000000,0,0,0,0,0,0,0,0,0,0
2053,1660893953.059620307,gps,0,0,35.6536121950,139.7930023583,4.7610000000,0,0,0,0,0,0,0,0,0,0
2054,1660893953.252374565,gps,0,0,35.6536132650,139.7930040900,4.7360000000,0,0,0,0,0,0,0,0,0,0
2055,1660893953.455896068,gps,0,0,35.6536139883,139.7930054917,4.7580000000,0,0,0,0,0,0,0,0,0,0
2056,1660893953.655113957,gps,0,0,35.6536150850,139.7930069067,4.7730000000,0,0,0,0,0,0,0,0,0,0
2057,1660893953.855210805,gps,0,0,35.6536164200,139.7930086283,4.7530000000,0,0,0,0,0,0,0,0,0,0
2058,1660893954.055038056,gps,0,0,35.6536177533,139.7930099167,4.7520000000,0,0,0,0,0,0,0,0,0,0
2059,1660893954.262158184,gps,0,0,35.6536186000,139.7930113417,4.7710000000,0,0,0,0,0,0,0,0,0,0
2060,1660893954.452955805,gps,0,0,35.6536199300,139.7930131400,4.7570000000,0,0,0,0,0,0,0,0,0,0
2061,1660893954.652240308,gps,0,0,35.6536213533,139.7930146400,4.7520000000,0,0,0,0,0,0,0,0,0,0
2062,1660893954.851839454,gps,0,0,35.6536224383,139.7930156783,4.7590000000,0,0,0,0,0,0,0,0,0,0
2063,1660893955.057969114,gps,0,0,35.6536238467,139.7930171417,4.7560000000,0,0,0,0,0,0,0,0,0,0
2064,1660893955.256254935,gps,0,0,35.6536253500,139.7930187883,4.7640000000,0,0,0,0,0,0,0,0,0,0
2065,1660893955.453352308,gps,0,0,35.6536264283,139.7930203850,4.7920000000,0,0,0,0,0,0,0,0,0,0
2066,1660893955.657991420,gps,0,0,35.6536278417,139.7930222150,4.7780000000,0,0,0,0,0,0,0,0,0,0
2067,1660893955.847989044,gps,0,0,35.6536292250,139.7930238333,4.7660000000,0,0,0,0,0,0,0,0,0,0
2068,1660893956.058716021,gps,0,0,35.6536304600,139.7930249133,4.7690000000,0,0,0,0,0,0,0,0,0,0
2069,1660893956.258812164,gps,0,0,35.6536320500,139.7930262883,4.7430000000,0,0,0,0,0,0,0,0,0,0
2070,1660893956.454365603,gps,0,0,35.6536341300,139.7930278933,4.7450000000,0,0,0,0,0,0,0,0,0,0
2071,1660893956.653241501,gps,0,0,35.6536353167,139.7930294950,4.7780000000,0,0,0,0,0,0,0,0,0,0
2072,1660893956.851741733,gps,0,0,35.6536365317,139.7930314300,4.7630000000,0,0,0,0,0,0,0,0,0,0
2073,1660893957.059720829,gps,0,0,35.6536375467,139.7930331467,4.7620000000,0,0,0,0,0,0,0,0,0,0
2074,1660893957.254878029,gps,0,0,35.6536383883,139.7930343100,4.8010000000,0,0,0,0,0,0,0,0,0,0
2075,1660893957.451785306,gps,0,0,35.6536400050,139.7930358733,4.7500000000,0,0,0,0,0,0,0,0,0,0
2076,1660893957.647128316,gps,0,0,35.6536420017,139.7930374233,4.7580000000,0,0,0,0,0,0,0,0,0,0
2077,1660893957.849550539,gps,0,0,35.6536431417,139.7930387833,4.7900000000,0,0,0,0,0,0,0,0,0,0
2078,1660893958.055977697,gps,0,0,35.6536444350,139.7930405167,4.7640000000,0,0,0,0,0,0,0,0,0,0
2079,1660893958.250208881,gps,0,0,35.6536457333,139.7930425300,4.7620000000,0,0,0,0,0,0,0,0,0,0
2080,1660893958.454261634,gps,0,0,35.6536466317,139.7930436833,4.8000000000,0,0,0,0,0,0,0,0,0,0
2081,1660893958.650081785,gps,0,0,35.6536480567,139.7930451183,4.7890000000,0,0,0,0,0,0,0,0,0,0
2082,1660893958.848293029,gps,0,0,35.6536499267,139.7930462133,4.7740000000,0,0,0,0,0,0,0,0,0,0
2083,1660893959.054207475,gps,0,0,35.6536512217,139.7930471117,4.7990000000,0,0,0,0,0,0,0,0,0,0
2084,1660893959.248254938,gps,0,0,35.6536523583,139.7930487233,4.7780000000,0,0,0,0,0,0,0,0,0,0
2085,1660893959.443635692,gps,0,0,35.6536537683,139.7930507000,4.7520000000,0,0,0,0,0,0,0,0,0,0
2086,1660893959.650015446,gps,0,0,35.6536548783,139.7930523550,4.7940000000,0,0,0,0,0,0,0,0,0,0
2087,1660893959.846026047,gps,0,0,35.6536563267,139.7930539183,4.7710000000,0,0,0,0,0,0,0,0,0,0
2088,1660893960.053088676,gps,0,0,35.6536581400,139.7930554350,4.7470000000,0,0,0,0,0,0,0,0,0,0
2089,1660893960.247370083,gps,0,0,35.6536598600,139.7930565750,4.7820000000,0,0,0,0,0,0,0,0,0,0
2090,1660893960.445842410,gps,0,0,35.6536609767,139.7930579933,4.7800000000,0,0,0,0,0,0,0,0,0,0
2091,1660893960.654101640,gps,0,0,35.6536625383,139.7930598933,4.7400000000,0,0,0,0,0,0,0,0,0,0
2092,1660893960.846195602,gps,0,0,35.6536638433,139.7930616717,4.7480000000,0,0,0,0,0,0,0,0,0,0
2093,1660893961.051300635,gps,0,0,35.6536647183,139.7930629367,4.7820000000,0,0,0,0,0,0,0,0,0,0
2094,1660893961.256975826,gps,0,0,35.6536661350,139.7930646917,4.7360000000,0,0,0,0,0,0,0,0,0,0
2095,1660893961.449026295,gps,0,0,35.6536678783,139.7930661033,4.7570000000,0,0,0,0,0,0,0,0,0,0
2096,1660893961.647989245,gps,0,0,35.6536691083,139.7930676533,4.7850000000,0,0,0,0,0,0,0,0,0,0
2097,1660893961.847761852,gps,0,0,35.6536703933,139.7930692867,4.7580000000,0,0,0,0,0,0,0,0,0,0
2098,1660893962.052878007,gps,0,0,35.6536714533,139.7930707750,4.7690000000,0,0,0,0,0,0,0,0,0,0
2099,1660893962.257127818,gps,0,0,35.6536725600,139.7930719367,4.7740000000,0,0,0,0,0,0,0,0,0,0
2100,1660893962.449817102,gps,0,0,35.6536741100,139.7930732583,4.7530000000,0,0,0,0,0,0,0,0,0,0
2101,1660893962.650123965,gps,0,0,35.6536759800,139.7930743017,4.7600000000,0,0,0,0,0,0,0,0,0,0
2102,1660893962.849027781,gps,0,0,35.6536771467,139.7930757017,4.7810000000,0,0,0,0,0,0,0,0,0,0
2103,1660893963.048302267,gps,0,0,35.6536781883,139.7930771433,4.7630000000,0,0,0,0,0,0,0,0,0,0
2104,1660893963.249161378,gps,0,0,35.6536791733,139.7930786283,4.7640000000,0,0,0,0,0,0,0,0,0,0
2105,1660893963.447995462,gps,0,0,35.6536802133,139.7930796833,4.7800000000,0,0,0,0,0,0,0,0,0,0
2106,1660893963.648159321,gps,0,0,35.6536817933,139.7930809433,4.7590000000,0,0,0,0,0,0,0,0,0,0
2107,1660893963.847972367,gps,0,0,35.6536836950,139.7930822433,4.7550000000,0,0,0,0,0,0,0,0,0,0
2108,1660893964.053190147,gps,0,0,35.6536851050,139.7930837750,4.7710000000,0,0,0,0,0,0,0,0,0,0
2109,1660893964.249114955,gps,0,0,35.6536862917,139.7930853983,4.7540000000,0,0,0,0,0,0,0,0,0,0
2110,1660893964.450064240,gps,0,0,35.6536876050,139.7930875700,4.7450000000,0,0,0,0,0,0,0,0,0,0
2111,1660893964.656270245,gps,0,0,35.6536885033,139.7930887933,4.7970000000,0,0,0,0,0,0,0,0,0,0
2112,1660893964.843783279,gps,0,0,35.6536898250,139.7930901817,4.7600000000,0,0,0,0,0,0,0,0,0,0
2113,1660893965.054706741,gps,0,0,35.6536917150,139.7930916850,4.7580000000,0,0,0,0,0,0,0,0,0,0
2114,1660893965.249023595,gps,0,0,35.6536932917,139.7930931483,4.7930000000,0,0,0,0,0,0,0,0,0,0
2115,1660893965.462054768,gps,0,0,35.6536947017,139.7930946300,4.7720000000,0,0,0,0,0,0,0,0,0,0
2116,1660893965.649199591,gps,0,0,35.6536962050,139.7930965683,4.7400000000,0,0,0,0,0,0,0,0,0,0
2117,1660893965.848213665,gps,0,0,35.6536972900,139.7930980950,4.7820000000,0,0,0,0,0,0,0,0,0,0
2118,1660893966.054970962,gps,0,0,35.6536983200,139.7930993100,4.7830000000,0,0,0,0,0,0,0,0,0,0
2119,1660893966.248906231,gps,0,0,35.6537000650,139.7931007950,4.7570000000,0,0,0,0,0,0,0,0,0,0
2120,1660893966.447144435,gps,0,0,35.6537017533,139.7931017767,4.7810000000,0,0,0,0,0,0,0,0,0,0
2121,1660893966.643261854,gps,0,0,35.6537029050,139.7931031850,4.7860000000,0,0,0,0,0,0,0,0,0,0
2122,1660893966.846944524,gps,0,0,35.6537043250,139.7931050950,4.7490000000,0,0,0,0,0,0,0,0,0,0
2123,1660893967.052835155,gps,0,0,35.6537054983,139.7931067683,4.7780000000,0,0,0,0,0,0,0,0,0,0
2124,1660893967.254740233,gps,0,0,35.6537064950,139.7931080367,4.8060000000,0,0,0,0,0,0,0,0,0,0
2125,1660893967.449205416,gps,0,0,35.6537081050,139.7931094867,4.7730000000,0,0,0,0,0,0,0,0,0,0
2126,1660893967.648304866,gps,0,0,35.6537100467,139.7931107400,4.7780000000,0,0,0,0,0,0,0,0,0,0
2127,1660893967.847908773,gps,0,0,35.6537111617,139.7931121350,4.8130000000,0,0,0,0,0,0,0,0,0,0
2128,1660893968.053108981,gps,0,0,35.6537123983,139.7931138433,4.7770000000,0,0,0,0,0,0,0,0,0,0
2129,1660893968.254191848,gps,0,0,35.6537138567,139.7931157567,4.7730000000,0,0,0,0,0,0,0,0,0,0
2130,1660893968.443729485,gps,0,0,35.6537147317,139.7931169050,4.8220000000,0,0,0,0,0,0,0,0,0,0
2131,1660893968.649156175,gps,0,0,35.6537162750,139.7931184017,4.7600000000,0,0,0,0,0,0,0,0,0,0
2132,1660893968.849013338,gps,0,0,35.6537182600,139.7931198200,4.7740000000,0,0,0,0,0,0,0,0,0,0
2133,1660893969.057085742,gps,0,0,35.6537195367,139.7931213033,4.7950000000,0,0,0,0,0,0,0,0,0,0
2134,1660893969.250125582,gps,0,0,35.6537207217,139.7931230233,4.7700000000,0,0,0,0,0,0,0,0,0,0
2135,1660893969.449248280,gps,0,0,35.6537217450,139.7931249750,4.7670000000,0,0,0,0,0,0,0,0,0,0
2136,1660893969.650076614,gps,0,0,35.6537226483,139.7931261867,4.8060000000,0,0,0,0,0,0,0,0,0,0
2137,1660893969.847959301,gps,0,0,35.6537239583,139.7931274767,4.7820000000,0,0,0,0,0,0,0,0,0,0
2138,1660893970.054209966,gps,0,0,35.6537260383,139.7931288933,4.7430000000,0,0,0,0,0,0,0,0,0,0
2139,1660893970.247143635,gps,0,0,35.6537276183,139.7931300683,4.7710000000,0,0,0,0,0,0,0,0,0,0
2140,1660893970.453185181,gps,0,0,35.6537285650,139.7931317150,4.7600000000,0,0,0,0,0,0,0,0,0,0
2141,1660893970.655958502,gps,0,0,35.6537296900,139.7931336567,4.7430000000,0,0,0,0,0,0,0,0,0,0
2142,1660893970.849073741,gps,0,0,35.6537309500,139.7931351950,4.7540000000,0,0,0,0,0,0,0,0,0,0
2143,1660893971.058776438,gps,0,0,35.6537319367,139.7931363350,4.7650000000,0,0,0,0,0,0,0,0,0,0
2144,1660893971.261227445,gps,0,0,35.6537337117,139.7931378917,4.7350000000,0,0,0,0,0,0,0,0,0,0
2145,1660893971.451249455,gps,0,0,35.6537355650,139.7931390183,4.7350000000,0,0,0,0,0,0,0,0,0,0
2146,1660893971.650967461,gps,0,0,35.6537364883,139.7931404800,4.7590000000,0,0,0,0,0,0,0,0,0,0
2147,1660893971.849837890,gps,0,0,35.6537374933,139.7931425017,4.7260000000,0,0,0,0,0,0,0,0,0,0
2148,1660893972.050024769,gps,0,0,35.6537387250,139.7931443167,4.7270000000,0,0,0,0,0,0,0,0,0,0
2149,1660893972.250149684,gps,0,0,35.6537397250,139.7931453217,4.7560000000,0,0,0,0,0,0,0,0,0,0
2150,1660893972.450909624,gps,0,0,35.6537412350,139.7931466917,4.7090000000,0,0,0,0,0,0,0,0,0,0
2151,1660893972.651993135,gps,0,0,35.6537430250,139.7931477200,4.7200000000,0,0,0,0,0,0,0,0,0,0
2152,1660893972.850847015,gps,0,0,35.6537442483,139.7931490983,4.7320000000,0,0,0,0,0,0,0,0,0,0
2153,1660893973.061816944,gps,0,0,35.6537453817,139.7931508050,4.7260000000,0,0,0,0,0,0,0,0,0,0
2154,1660893973.257255320,gps,0,0,35.6537463883,139.7931524550,4.7200000000,0,0,0,0,0,0,0,0,0,0
2155,1660893973.449773281,gps,0,0,35.6537476050,139.7931537233,4.7320000000,0,0,0,0,0,0,0,0,0,0
2156,1660893973.648302324,gps,0,0,35.6537492783,139.7931550550,4.7000000000,0,0,0,0,0,0,0,0,0,0
2157,1660893973.844038568,gps,0,0,35.6537511000,139.7931562267,4.6930000000,0,0,0,0,0,0,0,0,0,0
2158,1660893974.054799728,gps,0,0,35.6537523750,139.7931576833,4.7260000000,0,0,0,0,0,0,0,0,0,0
2159,1660893974.257157749,gps,0,0,35.6537534683,139.7931594967,4.7080000000,0,0,0,0,0,0,0,0,0,0
2160,1660893974.449981561,gps,0,0,35.6537546767,139.7931614300,4.6610000000,0,0,0,0,0,0,0,0,0,0
2161,1660893974.649181070,gps,0,0,35.6537556717,139.7931625283,4.6810000000,0,0,0,0,0,0,0,0,0,0
2162,1660893974.848103600,gps,0,0,35.6537569233,139.7931637217,4.6690000000,0,0,0,0,0,0,0,0,0,0
2163,1660893975.054944295,gps,0,0,35.6537589600,139.7931649550,4.6120000000,0,0,0,0,0,0,0,0,0,0
2164,1660893975.247162428,gps,0,0,35.6537602700,139.7931660083,4.6590000000,0,0,0,0,0,0,0,0,0,0
2165,1660893975.446730466,gps,0,0,35.6537615750,139.7931676450,4.6560000000,0,0,0,0,0,0,0,0,0,0
2166,1660893975.641100233,gps,0,0,35.6537629533,139.7931694833,4.6060000000,0,0,0,0,0,0,0,0,0,0
2167,1660893975.844737575,gps,0,0,35.6537640400,139.7931707300,4.6200000000,0,0,0,0,0,0,0,0,0,0
2168,1660893976.049200175,gps,0,0,35.6537651233,139.7931717633,4.6310000000,0,0,0,0,0,0,0,0,0,0
2169,1660893976.246737578,gps,0,0,35.6537671750,139.7931729117,4.5690000000,0,0,0,0,0,0,0,0,0,0
2170,1660893976.446148613,gps,0,0,35.6537689383,139.7931738900,4.5510000000,0,0,0,0,0,0,0,0,0,0
2171,1660893976.645045854,gps,0,0,35.6537699467,139.7931753950,4.5720000000,0,0,0,0,0,0,0,0,0,0
2172,1660893976.845778855,gps,0,0,35.6537714150,139.7931770650,4.5180000000,0,0,0,0,0,0,0,0,0,0
2173,1660893977.049758252,gps,0,0,35.6537724583,139.7931783583,4.5210000000,0,0,0,0,0,0,0,0,0,0
2174,1660893977.245604637,gps,0,0,35.6537738533,139.7931793967,4.5360000000,0,0,0,0,0,0,0,0,0,0
2175,1660893977.441706398,gps,0,0,35.6537758283,139.7931804800,4.4770000000,0,0,0,0,0,0,0,0,0,0
2176,1660893977.646600496,gps,0,0,35.6537775950,139.7931813050,4.4470000000,0,0,0,0,0,0,0,0,0,0
2177,1660893977.845082707,gps,0,0,35.6537788467,139.7931825700,4.4840000000,0,0,0,0,0,0,0,0,0,0
2178,1660893978.051968659,gps,0,0,35.6537801283,139.7931841800,4.4470000000,0,0,0,0,0,0,0,0,0,0
2179,1660893978.246535982,gps,0,0,35.6537812567,139.7931854017,4.4280000000,0,0,0,0,0,0,0,0,0,0
2180,1660893978.445976513,gps,0,0,35.6537826617,139.7931863800,4.4280000000,0,0,0,0,0,0,0,0,0,0
2181,1660893978.645276638,gps,0,0,35.6537846183,139.7931872700,4.3640000000,0,0,0,0,0,0,0,0,0,0
2182,1660893978.842874925,gps,0,0,35.6537864550,139.7931877217,4.3250000000,0,0,0,0,0,0,0,0,0,0
2183,1660893979.048054028,gps,0,0,35.6537876533,139.7931887633,4.3700000000,0,0,0,0,0,0,0,0,0,0
2184,1660893979.240966079,gps,0,0,35.6537890783,139.7931902000,4.3260000000,0,0,0,0,0,0,0,0,0,0
2185,1660893979.445040657,gps,0,0,35.6537903967,139.7931916133,4.3080000000,0,0,0,0,0,0,0,0,0,0
2186,1660893979.644227570,gps,0,0,35.6537919367,139.7931926667,4.3330000000,0,0,0,0,0,0,0,0,0,0
2187,1660893979.845036329,gps,0,0,35.6537939467,139.7931937283,4.2910000000,0,0,0,0,0,0,0,0,0,0
2188,1660893980.049686643,gps,0,0,35.6537961417,139.7931941883,4.2520000000,0,0,0,0,0,0,0,0,0,0
2189,1660893980.245193090,gps,0,0,35.6537978283,139.7931949850,4.2590000000,0,0,0,0,0,0,0,0,0,0
2190,1660893980.447081639,gps,0,0,35.6537993517,139.7931962883,4.2330000000,0,0,0,0,0,0,0,0,0,0
2191,1660893980.647959028,gps,0,0,35.6538007467,139.7931977667,4.2020000000,0,0,0,0,0,0,0,0,0,0
2192,1660893980.843042713,gps,0,0,35.6538023400,139.7931989333,4.2010000000,0,0,0,0,0,0,0,0,0,0
2193,1660893981.045874224,gps,0,0,35.6538040767,139.7931998600,4.1860000000,0,0,0,0,0,0,0,0,0,0
2194,1660893981.245982638,gps,0,0,35.6538057083,139.7932004633,4.1810000000,0,0,0,0,0,0,0,0,0,0
2195,1660893981.444919658,gps,0,0,35.6538074983,139.7932011367,4.2270000000,0,0,0,0,0,0,0,0,0,0
2196,1660893981.646713188,gps,0,0,35.6538087500,139.7932020633,4.2310000000,0,0,0,0,0,0,0,0,0,0
2197,1660893981.844721196,gps,0,0,35.6538102850,139.7932026867,4.2200000000,0,0,0,0,0,0,0,0,0,0
2198,1660893982.049171186,gps,0,0,35.6538116150,139.7932034250,4.2350000000,0,0,0,0,0,0,0,0,0,0
2199,1660893982.256025470,gps,0,0,35.6538127050,139.7932036967,4.2410000000,0,0,0,0,0,0,0,0,0,0
2200,1660893982.455786737,gps,0,0,35.6538144350,139.7932036817,4.2270000000,0,0,0,0,0,0,0,0,0,0
2201,1660893982.644120219,gps,0,0,35.6538160267,139.7932031633,4.2460000000,0,0,0,0,0,0,0,0,0,0
2202,1660893982.838896209,gps,0,0,35.6538173850,139.7932035433,4.2550000000,0,0,0,0,0,0,0,0,0,0
2203,1660893983.049580410,gps,0,0,35.6538189933,139.7932037717,4.2430000000,0,0,0,0,0,0,0,0,0,0
2204,1660893983.254877669,gps,0,0,35.6538204217,139.7932037683,4.2430000000,0,0,0,0,0,0,0,0,0,0
2205,1660893983.445853778,gps,0,0,35.6538217000,139.7932031433,4.2520000000,0,0,0,0,0,0,0,0,0,0
2206,1660893983.645791957,gps,0,0,35.6538232400,139.7932018483,4.2390000000,0,0,0,0,0,0,0,0,0,0
2207,1660893983.846595454,gps,0,0,35.6538248600,139.7932002117,4.2580000000,0,0,0,0,0,0,0,0,0,0
2208,1660893984.050058262,gps,0,0,35.6538264267,139.7931992850,4.2780000000,0,0,0,0,0,0,0,0,0,0
2209,1660893984.245263112,gps,0,0,35.6538279733,139.7931982667,4.2760000000,0,0,0,0,0,0,0,0,0,0
2210,1660893984.442151351,gps,0,0,35.6538296733,139.7931973800,4.2830000000,0,0,0,0,0,0,0,0,0,0
2211,1660893984.638799822,gps,0,0,35.6538306833,139.7931964317,4.2920000000,0,0,0,0,0,0,0,0,0,0
2212,1660893984.840886600,gps,0,0,35.6538322250,139.7931948683,4.2640000000,0,0,0,0,0,0,0,0,0,0
2213,1660893985.051670355,gps,0,0,35.6538339383,139.7931927283,4.2740000000,0,0,0,0,0,0,0,0,0,0
2214,1660893985.243152116,gps,0,0,35.6538354067,139.7931917517,4.2920000000,0,0,0,0,0,0,0,0,0,0
2215,1660893985.444235744,gps,0,0,35.6538370433,139.7931910117,4.2720000000,0,0,0,0,0,0,0,0,0,0
2216,1660893985.643830747,gps,0,0,35.6538389283,139.7931902633,4.2530000000,0,0,0,0,0,0,0,0,0,0
2217,1660893985.843113110,gps,0,0,35.6538402867,139.7931894450,4.2430000000,0,0,0,0,0,0,0,0,0,0
2218,1660893986.048922780,gps,0,0,35.6538418683,139.7931880583,4.2320000000,0,0,0,0,0,0,0,0,0,0
2219,1660893986.250101274,gps,0,0,35.6538436050,139.7931863400,4.2580000000,0,0,0,0,0,0,0,0,0,0
2220,1660893986.440815074,gps,0,0,35.6538450600,139.7931857600,4.2710000000,0,0,0,0,0,0,0,0,0,0
2221,1660893986.642692474,gps,0,0,35.6538465717,139.7931852133,4.2680000000,0,0,0,0,0,0,0,0,0,0
2222,1660893986.841850288,gps,0,0,35.6538481833,139.7931847050,4.2540000000,0,0,0,0,0,0,0,0,0,0
2223,1660893987.048023530,gps,0,0,35.6538491950,139.7931842683,4.2750000000,0,0,0,0,0,0,0,0,0,0
2224,1660893987.244549375,gps,0,0,35.6538508133,139.7931829217,4.2590000000,0,0,0,0,0,0,0,0,0,0
2225,1660893987.442547565,gps,0,0,35.6538529467,139.7931810550,4.2540000000,0,0,0,0,0,0,0,0,0,0
2226,1660893987.643988155,gps,0,0,35.6538546167,139.7931802267,4.2790000000,0,0,0,0,0,0,0,0,0,0
2227,1660893987.842020097,gps,0,0,35.6538564700,139.7931798183,4.2510000000,0,0,0,0,0,0,0,0,0,0
2228,1660893988.046843177,gps,0,0,35.6538583333,139.7931793783,4.2530000000,0,0,0,0,0,0,0,0,0,0
2229,1660893988.242921926,gps,0,0,35.6538595000,139.7931786050,4.2640000000,0,0,0,0,0,0,0,0,0,0
2230,1660893988.444859398,gps,0,0,35.6538609533,139.7931775567,4.2760000000,0,0,0,0,0,0,0,0,0,0
2231,1660893988.644896175,gps,0,0,35.6538628867,139.7931759967,4.2660000000,0,0,0,0,0,0,0,0,0,0
2232,1660893988.844570125,gps,0,0,35.6538644883,139.7931752867,4.2650000000,0,0,0,0,0,0,0,0,0,0
2233,1660893989.050002447,gps,0,0,35.6538661317,139.7931750300,4.2740000000,0,0,0,0,0,0,0,0,0,0
2234,1660893989.244484001,gps,0,0,35.6538680333,139.7931748283,4.2760000000,0,0,0,0,0,0,0,0,0,0
2235,1660893989.444668216,gps,0,0,35.6538695167,139.7931745317,4.2660000000,0,0,0,0,0,0,0,0,0,0
2236,1660893989.644666405,gps,0,0,35.6538711133,139.7931735217,4.2460000000,0,0,0,0,0,0,0,0,0,0
2237,1660893989.841870393,gps,0,0,35.6538729250,139.7931719633,4.2610000000,0,0,0,0,0,0,0,0,0,0
2238,1660893990.045007750,gps,0,0,35.6538741950,139.7931709217,4.2920000000,0,0,0,0,0,0,0,0,0,0
2239,1660893990.244241227,gps,0,0,35.6538757600,139.7931703433,4.2740000000,0,0,0,0,0,0,0,0,0,0
2240,1660893990.449127374,gps,0,0,35.6538774933,139.7931697783,4.2820000000,0,0,0,0,0,0,0,0,0,0
2241,1660893990.644773852,gps,0,0,35.6538790083,139.7931693517,4.3160000000,0,0,0,0,0,0,0,0,0,0
2242,1660893990.842987462,gps,0,0,35.6538804683,139.7931684450,4.3190000000,0,0,0,0,0,0,0,0,0,0
2243,1660893991.048839652,gps,0,0,35.6538821250,139.7931667233,4.2840000000,0,0,0,0,0,0,0,0,0,0
2244,1660893991.251839331,gps,0,0,35.6538834683,139.7931651500,4.3130000000,0,0,0,0,0,0,0,0,0,0
2245,1660893991.444483770,gps,0,0,35.6538851300,139.7931645750,4.3170000000,0,0,0,0,0,0,0,0,0,0
2246,1660893991.642094057,gps,0,0,35.6538869433,139.7931641100,4.2670000000,0,0,0,0,0,0,0,0,0,0
2247,1660893991.837033213,gps,0,0,35.6538886850,139.7931637533,4.2900000000,0,0,0,0,0,0,0,0,0,0
2248,1660893992.047746061,gps,0,0,35.6538898933,139.7931632617,4.2890000000,0,0,0,0,0,0,0,0,0,0
2249,1660893992.246080822,gps,0,0,35.6538917017,139.7931620483,4.2840000000,0,0,0,0,0,0,0,0,0,0
2250,1660893992.443861318,gps,0,0,35.6538935917,139.7931606017,4.2940000000,0,0,0,0,0,0,0,0,0,0
2251,1660893992.643036477,gps,0,0,35.6538953533,139.7931599367,4.3250000000,0,0,0,0,0,0,0,0,0,0
2252,1660893992.841095216,gps,0,0,35.6538972550,139.7931595517,4.3020000000,0,0,0,0,0,0,0,0,0,0
2253,1660893993.047137504,gps,0,0,35.6538988717,139.7931595933,4.3230000000,0,0,0,0,0,0,0,0,0,0
2254,1660893993.242683068,gps,0,0,35.6539003617,139.7931590900,4.3190000000,0,0,0,0,0,0,0,0,0,0
2255,1660893993.443745988,gps,0,0,35.6539021950,139.7931579767,4.2890000000,0,0,0,0,0,0,0,0,0,0
2256,1660893993.640039412,gps,0,0,35.6539039883,139.7931562600,4.2750000000,0,0,0,0,0,0,0,0,0,0
2257,1660893993.841963648,gps,0,0,35.6539055700,139.7931556600,4.2500000000,0,0,0,0,0,0,0,0,0,0
2258,1660893994.047202311,gps,0,0,35.6539071200,139.7931553100,4.2570000000,0,0,0,0,0,0,0,0,0,0
2259,1660893994.244500439,gps,0,0,35.6539088767,139.7931553083,4.2620000000,0,0,0,0,0,0,0,0,0,0
2260,1660893994.444758359,gps,0,0,35.6539099417,139.7931549500,4.2430000000,0,0,0,0,0,0,0,0,0,0
2261,1660893994.642021757,gps,0,0,35.6539115917,139.7931541600,4.2270000000,0,0,0,0,0,0,0,0,0,0
2262,1660893994.842938715,gps,0,0,35.6539134500,139.7931525400,4.2190000000,0,0,0,0,0,0,0,0,0,0
2263,1660893995.047982293,gps,0,0,35.6539150933,139.7931517083,4.1990000000,0,0,0,0,0,0,0,0,0,0
2264,1660893995.243068655,gps,0,0,35.6539167867,139.7931512750,4.1960000000,0,0,0,0,0,0,0,0,0,0
2265,1660893995.439707510,gps,0,0,35.6539186150,139.7931507483,4.2250000000,0,0,0,0,0,0,0,0,0,0
2266,1660893995.650758423,gps,0,0,35.6539200367,139.7931503433,4.2800000000,0,0,0,0,0,0,0,0,0,0
2267,1660893995.840157000,gps,0,0,35.6539217517,139.7931496433,4.3000000000,0,0,0,0,0,0,0,0,0,0
2268,1660893996.049673414,gps,0,0,35.6539235300,139.7931480333,4.2640000000,0,0,0,0,0,0,0,0,0,0
2269,1660893996.243785634,gps,0,0,35.6539251733,139.7931472433,4.2700000000,0,0,0,0,0,0,0,0,0,0
2270,1660893996.441688205,gps,0,0,35.6539267600,139.7931467833,4.2710000000,0,0,0,0,0,0,0,0,0,0
2271,1660893996.669511112,gps,0,0,35.6539288867,139.7931463967,4.2200000000,0,0,0,0,0,0,0,0,0,0
2272,1660893996.842980927,gps,0,0,35.6539301400,139.7931460050,4.2690000000,0,0,0,0,0,0,0,0,0,0
2273,1660893997.045915070,gps,0,0,35.6539315467,139.7931454067,4.2470000000,0,0,0,0,0,0,0,0,0,0
2274,1660893997.238916748,gps,0,0,35.6539333667,139.7931440217,4.2260000000,0,0,0,0,0,0,0,0,0,0
2275,1660893997.445881668,gps,0,0,35.6539350167,139.7931431700,4.2320000000,0,0,0,0,0,0,0,0,0,0
2276,1660893997.642188831,gps,0,0,35.6539367917,139.7931430283,4.2550000000,0,0,0,0,0,0,0,0,0,0
2277,1660893997.842476803,gps,0,0,35.6539390083,139.7931428600,4.1800000000,0,0,0,0,0,0,0,0,0,0
2278,1660893998.044899775,gps,0,0,35.6539405200,139.7931426467,4.1620000000,0,0,0,0,0,0,0,0,0,0
2279,1660893998.246729887,gps,0,0,35.6539419167,139.7931421733,4.1880000000,0,0,0,0,0,0,0,0,0,0
2280,1660893998.442488216,gps,0,0,35.6539435867,139.7931413167,4.2340000000,0,0,0,0,0,0,0,0,0,0
2281,1660893998.641701198,gps,0,0,35.6539452200,139.7931404200,4.2160000000,0,0,0,0,0,0,0,0,0,0
2282,1660893998.839465424,gps,0,0,35.6539467917,139.7931406717,4.2110000000,0,0,0,0,0,0,0,0,0,0
2283,1660893999.040046139,gps,0,0,35.6539487117,139.7931404250,4.2040000000,0,0,0,0,0,0,0,0,0,0
2284,1660893999.248807991,gps,0,0,35.6539503033,139.7931404883,4.2090000000,0,0,0,0,0,0,0,0,0,0
2285,1660893999.440907350,gps,0,0,35.6539518683,139.7931400450,4.2440000000,0,0,0,0,0,0,0,0,0,0
2286,1660893999.641833325,gps,0,0,35.6539536700,139.7931391650,4.2090000000,0,0,0,0,0,0,0,0,0,0
2287,1660893999.839852197,gps,0,0,35.6539553200,139.7931378583,4.2380000000,0,0,0,0,0,0,0,0,0,0
2288,1660894000.045654412,gps,0,0,35.6539568383,139.7931376200,4.2070000000,0,0,0,0,0,0,0,0,0,0
2289,1660894000.251373239,gps,0,0,35.6539584383,139.7931375050,4.1960000000,0,0,0,0,0,0,0,0,0,0
2290,1660894000.442936842,gps,0,0,35.6539603550,139.7931364400,4.2150000000,0,0,0,0,0,0,0,0,0,0
2291,1660894000.641491948,gps,0,0,35.6539618367,139.7931359717,4.2040000000,0,0,0,0,0,0,0,0,0,0
2292,1660894000.836938024,gps,0,0,35.6539634800,139.7931349567,4.1710000000,0,0,0,0,0,0,0,0,0,0
2293,1660894001.046765227,gps,0,0,35.6539650717,139.7931335700,4.1860000000,0,0,0,0,0,0,0,0,0,0
2294,1660894001.241813048,gps,0,0,35.6539663850,139.7931326150,4.2200000000,0,0,0,0,0,0,0,0,0,0
2295,1660894001.446622167,gps,0,0,35.6539681200,139.7931320567,4.2340000000,0,0,0,0,0,0,0,0,0,0
2296,1660894001.642718334,gps,0,0,35.6539699300,139.7931316650,4.2530000000,0,0,0,0,0,0,0,0,0,0
2297,1660894001.840035983,gps,0,0,35.6539710500,139.7931311450,4.2630000000,0,0,0,0,0,0,0,0,0,0
2298,1660894002.045623846,gps,0,0,35.6539727033,139.7931304150,4.2240000000,0,0,0,0,0,0,0,0,0,0
2299,1660894002.242074332,gps,0,0,35.6539747350,139.7931287217,4.2230000000,0,0,0,0,0,0,0,0,0,0
2300,1660894002.440807925,gps,0,0,35.6539762383,139.7931277467,4.2880000000,0,0,0,0,0,0,0,0,0,0
2301,1660894002.638430435,gps,0,0,35.6539783883,139.7931275017,4.2390000000,0,0,0,0,0,0,0,0,0,0
2302,1660894002.839870061,gps,0,0,35.6539805967,139.7931273867,4.1930000000,0,0,0,0,0,0,0,0,0,0
2303,1660894003.046129954,gps,0,0,35.6539820983,139.7931271717,4.1950000000,0,0,0,0,0,0,0,0,0,0
2304,1660894003.242712950,gps,0,0,35.6539835683,139.7931263200,4.1710000000,0,0,0,0,0,0,0,0,0,0
2305,1660894003.441907686,gps,0,0,35.6539857950,139.7931249850,4.1120000000,0,0,0,0,0,0,0,0,0,0
2306,1660894003.639200832,gps,0,0,35.6539873250,139.7931241817,4.1280000000,0,0,0,0,0,0,0,0,0,0
2307,1660894003.842549061,gps,0,0,35.6539889767,139.7931237667,4.0930000000,0,0,0,0,0,0,0,0,0,0
2308,1660894004.048049257,gps,0,0,35.6539910350,139.7931233883,4.1080000000,0,0,0,0,0,0,0,0,0,0
2309,1660894004.248103373,gps,0,0,35.6539924150,139.7931228133,4.1790000000,0,0,0,0,0,0,0,0,0,0
2310,1660894004.436876109,gps,0,0,35.6539939183,139.7931217233,4.1620000000,0,0,0,0,0,0,0,0,0,0
2311,1660894004.642923689,gps,0,0,35.6539958200,139.7931201567,4.1440000000,0,0,0,0,0,0,0,0,0,0
2312,1660894004.839054669,gps,0,0,35.6539973333,139.7931189200,4.1680000000,0,0,0,0,0,0,0,0,0,0
2313,1660894005.044944372,gps,0,0,35.6539989067,139.7931184800,4.2010000000,0,0,0,0,0,0,0,0,0,0
2314,1660894005.247042617,gps,0,0,35.6540008617,139.7931179433,4.1710000000,0,0,0,0,0,0,0,0,0,0
2315,1660894005.442356542,gps,0,0,35.6540023000,139.7931173900,4.1600000000,0,0,0,0,0,0,0,0,0,0
2316,1660894005.644030330,gps,0,0,35.6540036417,139.7931162683,4.1630000000,0,0,0,0,0,0,0,0,0,0
2317,1660894005.841348421,gps,0,0,35.6540053350,139.7931145717,4.1390000000,0,0,0,0,0,0,0,0,0,0
2318,1660894006.047903068,gps,0,0,35.6540065733,139.7931132633,4.1720000000,0,0,0,0,0,0,0,0,0,0
2319,1660894006.238177060,gps,0,0,35.6540078467,139.7931126183,4.2150000000,0,0,0,0,0,0,0,0,0,0
2320,1660894006.443074568,gps,0,0,35.6540097917,139.7931120733,4.2080000000,0,0,0,0,0,0,0,0,0,0
2321,1660894006.642586440,gps,0,0,35.6540112867,139.7931114467,4.1900000000,0,0,0,0,0,0,0,0,0,0
